[
  {
    "id": 1,
    "lat": 50.086423333333336,
    "lng": 14.417786388888889,
    "place": "Clam - Gallas\u016fv pal\u00e1c",
    "street": "Husova 158/20",
    "region": "Hlavn\u00ed m\u011bsto Praha",
    "city": "Praha 1",
    "zip": "110 00",
    "type": "wc"
  },
  {
    "id": 2,
    "lat": 50.085953333333336,
    "lng": 14.417235277777777,
    "place": "Divadeln\u00ed akademie m\u00fazick\u00fdch um\u011bn\u00ed - divadlo DISK",
    "street": "Karlova 26",
    "region": "Hlavn\u00ed m\u011bsto Praha",
    "city": "Praha 1",
    "zip": "116 65",
    "type": "wc"
  },
  {
    "id": 3,
    "lat": 50.07914916666667,
    "lng": 14.425749444444444,
    "place": "Finan\u010dn\u00ed \u00fa\u0159ad pro Prahu 1",
    "street": "\u0160t\u011bp\u00e1nsk\u00e1 619/28",
    "region": "Hlavn\u00ed m\u011bsto Praha",
    "city": "Praha 1",
    "zip": "112 33",
    "type": "wc"
  },
  {
    "id": 4,
    "lat": 50.08710861111111,
    "lng": 14.417829444444443,
    "place": "Magistr\u00e1t hl. m. Prahy, Nov\u00e1 radnice",
    "street": "Mari\u00e1nsk\u00e9 n\u00e1m\u011bst\u00ed 2",
    "region": "Hlavn\u00ed m\u011bsto Praha",
    "city": "Praha 1",
    "zip": "110 00",
    "type": "wc"
  },
  {
    "id": 5,
    "lat": 50.08685555555556,
    "lng": 14.420196944444443,
    "place": "Magistr\u00e1t hl. m. Prahy, Starom\u011bstsk\u00e1 radnice s Orlojem",
    "street": "Starom\u011bstsk\u00e9 n\u00e1m\u011bst\u00ed 1/3",
    "region": "Hlavn\u00ed m\u011bsto Praha",
    "city": "Praha 1",
    "zip": "110 00",
    "type": "wc"
  },
  {
    "id": 6,
    "lat": 50.081965555555556,
    "lng": 14.422249722222222,
    "place": "Magistr\u00e1t hl. m. Prahy, \u0160kod\u016fv pal\u00e1c",
    "street": "Jungmannova 35/29",
    "region": "Hlavn\u00ed m\u011bsto Praha",
    "city": "Praha 1",
    "zip": "110 00",
    "type": "wc"
  },
  {
    "id": 7,
    "lat": 50.0933525,
    "lng": 14.434365833333334,
    "place": "Ministerstvo dopravy \u010cR",
    "street": "n\u00e1b\u0159. L. Svobody 1222/12",
    "region": "Hlavn\u00ed m\u011bsto Praha",
    "city": "Praha 1",
    "zip": "110 15",
    "type": "platform"
  },
  {
    "id": 8,
    "lat": 50.08574305555556,
    "lng": 14.425212777777777,
    "place": "N\u00e1kupn\u00ed galerie Myslbek, Na P\u0159\u00edkop\u011b 19, 21",
    "street": "Ovocn\u00fd trh 8",
    "region": "Hlavn\u00ed m\u011bsto Praha",
    "city": "Praha 1",
    "zip": "110 00",
    "type": "wc"
  },
  {
    "id": 9,
    "lat": 50.08909611111111,
    "lng": 14.4277,
    "place": "Obchodn\u00ed d\u016fm Kotva",
    "street": "N\u00e1m. Republiky",
    "region": "Hlavn\u00ed m\u011bsto Praha",
    "city": "Praha 1",
    "zip": "110 00",
    "type": "wc"
  },
  {
    "id": 10,
    "lat": 50.08583333333333,
    "lng": 14.428055555555554,
    "place": "Pas\u00e1\u017e Slovansk\u00fd D\u016fm",
    "street": "Na P\u0159\u00edkop\u011b 859/22",
    "region": "Hlavn\u00ed m\u011bsto Praha",
    "city": "Praha 1",
    "zip": "110 00",
    "type": "wc"
  },
  {
    "id": 11,
    "lat": 50.08113111111111,
    "lng": 14.423127222222222,
    "place": "Rehabilita\u010dn\u00ed poliklinika Palack\u00e9ho",
    "street": "Palack\u00e9ho 5",
    "region": "Hlavn\u00ed m\u011bsto Praha",
    "city": "Praha 1 \u2013 Nov\u00e9 M\u011bsto",
    "zip": "110 00",
    "type": "wc"
  },
  {
    "id": 12,
    "lat": 50.08347166666667,
    "lng": 14.423972222222222,
    "place": "Stanice metra M\u016fstek A",
    "street": "vestibul M\u016fstek",
    "region": "Hlavn\u00ed m\u011bsto Praha",
    "city": "Praha 1",
    "zip": "110 00",
    "type": "wc"
  },
  {
    "id": 13,
    "lat": 50.083018333333335,
    "lng": 14.422388888888888,
    "place": "Stanice metra M\u016fstek B",
    "street": "vestibul Jungmannovo n\u00e1m\u011bst\u00ed",
    "region": "Hlavn\u00ed m\u011bsto Praha",
    "city": "Praha 1",
    "zip": "110 00",
    "type": "wc"
  },
  {
    "id": 14,
    "lat": 50.088634444444445,
    "lng": 14.431150555555554,
    "place": "Stanice metra N\u00e1m\u011bst\u00ed Republiky",
    "street": "",
    "region": "Hlavn\u00ed m\u011bsto Praha",
    "city": "Praha 1 - Nov\u00e9 M\u011bsto",
    "zip": "110 00",
    "type": "wc"
  },
  {
    "id": 15,
    "lat": 50.08864583333334,
    "lng": 14.416165277777779,
    "place": "Stanice metra Starom\u011bstsk\u00e1",
    "street": "",
    "region": "Hlavn\u00ed m\u011bsto Praha",
    "city": "Praha 1 - Josefov",
    "zip": "110 00",
    "type": "wc"
  },
  {
    "id": 16,
    "lat": 50.08992888888889,
    "lng": 14.416313888888888,
    "place": "Um\u011bleckopr\u016fmyslov\u00e9 museum v Praze",
    "street": "17. listopadu 2/2",
    "region": "Hlavn\u00ed m\u011bsto Praha",
    "city": "Praha 1 - Josefov",
    "zip": "110 00",
    "type": "wc"
  },
  {
    "id": 17,
    "lat": 50.08233972222222,
    "lng": 14.413304166666666,
    "place": "Univerzita Karlova v Praze - Fakulta soci\u00e1ln\u00edch v\u011bd, Budova Hollar",
    "street": "Smetanovo n\u00e1b\u0159e\u017e\u00ed 6",
    "region": "Hlavn\u00ed m\u011bsto Praha",
    "city": "Praha 1",
    "zip": "110 01",
    "type": "wc"
  },
  {
    "id": 18,
    "lat": 50.07972277777778,
    "lng": 14.420338055555556,
    "place": "Univerzita Karlova v Praze - Pedagogick\u00e1 fakulta",
    "street": "Magdal\u00e9ny Rettigov\u00e9 47/4",
    "region": "Hlavn\u00ed m\u011bsto Praha",
    "city": "Praha 1",
    "zip": "116 39",
    "type": "wc"
  },
  {
    "id": 19,
    "lat": 50.087456111111116,
    "lng": 14.432694444444444,
    "place": "\u017delezni\u010dn\u00ed stanice Praha Masarykovo n\u00e1dra\u017e\u00ed",
    "street": "Havl\u00ed\u010dkova 2",
    "region": "Hlavn\u00ed m\u011bsto Praha",
    "city": "Praha 1",
    "zip": "110 00",
    "type": "wc"
  },
  {
    "id": 20,
    "lat": 50.07739083333334,
    "lng": 14.440552777777778,
    "place": "Finan\u010dn\u00ed \u00fa\u0159ad pro Prahu 2",
    "street": "Vinohradsk\u00e1 2488/49",
    "region": "Hlavn\u00ed m\u011bsto Praha",
    "city": "Praha 2",
    "zip": "120 00",
    "type": "wc"
  },
  {
    "id": 21,
    "lat": 50.08410916666667,
    "lng": 14.439709444444444,
    "place": "Churchill",
    "street": "Italsk\u00e1 2581/67",
    "region": "Hlavn\u00ed m\u011bsto Praha",
    "city": "Praha 2 - Vinohrady ",
    "zip": "120 00",
    "type": "wc"
  },
  {
    "id": 22,
    "lat": 50.073037777777785,
    "lng": 14.415365,
    "place": "Ministerstvo zdravotnictv\u00ed",
    "street": "Palack\u00e9ho n\u00e1m. 4",
    "region": "Hlavn\u00ed m\u011bsto Praha",
    "city": "Praha 2",
    "zip": "120 00",
    "type": "wc"
  },
  {
    "id": 23,
    "lat": 50.075405,
    "lng": 14.430378888888889,
    "place": "Stanice metra I. P. Pavlova",
    "street": "",
    "region": "Hlavn\u00ed m\u011bsto Praha",
    "city": "Praha 2 - Nov\u00e9 M\u011bsto",
    "zip": "120 00",
    "type": "wc"
  },
  {
    "id": 24,
    "lat": 50.07493222222222,
    "lng": 14.418838611111111,
    "place": "Stanice metra Karlovo n\u00e1m\u011bst\u00ed",
    "street": "",
    "region": "Hlavn\u00ed m\u011bsto Praha",
    "city": "Praha 2 - Nov\u00e9 M\u011bsto",
    "zip": "120 00",
    "type": "wc"
  },
  {
    "id": 25,
    "lat": 50.075298333333336,
    "lng": 14.437567777777778,
    "place": "Stanice metra N\u00e1m\u011bst\u00ed M\u00edru",
    "street": "",
    "region": "Hlavn\u00ed m\u011bsto Praha",
    "city": "Praha 2 - Vinohrady ",
    "zip": "120 00",
    "type": "wc"
  },
  {
    "id": 26,
    "lat": 50.068894444444446,
    "lng": 14.445499444444446,
    "place": "Ve\u0159ejn\u00e9 WC, Park Havl\u00ed\u010dkovy sady - Landhauska",
    "street": "Vinohrady",
    "region": "Hlavn\u00ed m\u011bsto Praha",
    "city": "Praha 2",
    "zip": "120 00",
    "type": "wc"
  },
  {
    "id": 27,
    "lat": 50.08326027777778,
    "lng": 14.435069722222222,
    "place": "\u017delezni\u010dn\u00ed stanice Praha hl.n.",
    "street": "Wilsonova 300/8",
    "region": "Hlavn\u00ed m\u011bsto Praha",
    "city": "Praha 2 - Vinohrady ",
    "zip": "120 00",
    "type": "wc"
  },
  {
    "id": 28,
    "lat": 50.090334444444444,
    "lng": 14.49929611111111,
    "place": "Bytov\u00fd d\u016fm v are\u00e1lu Auto Jarov",
    "street": "Osikov\u00e1",
    "region": "Hlavn\u00ed m\u011bsto Praha",
    "city": "Praha 3",
    "zip": "130 00",
    "type": "wc"
  },
  {
    "id": 29,
    "lat": 50.09326555555556,
    "lng": 14.499128333333333,
    "place": "Hypermarket Kaufland",
    "street": "V T\u0159e\u0161\u0148ovce 232/2",
    "region": "Hlavn\u00ed m\u011bsto Praha",
    "city": "Praha 3 - Jarov",
    "zip": "130 00",
    "type": "wc"
  },
  {
    "id": 30,
    "lat": 50.077247500000006,
    "lng": 14.449177777777779,
    "place": "Stanice metra Ji\u0159\u00edho z Pod\u011bbrad",
    "street": "",
    "region": "Hlavn\u00ed m\u011bsto Praha",
    "city": "Praha 3 - Vinohrady",
    "zip": "130 00",
    "type": "wc"
  },
  {
    "id": 31,
    "lat": 50.047398055555554,
    "lng": 14.455197777777776,
    "place": "BB Centrum - budova C",
    "street": "Vysko\u010dilova",
    "region": "Hlavn\u00ed m\u011bsto Praha",
    "city": "Praha 4",
    "zip": "140 00",
    "type": "wc"
  },
  {
    "id": 32,
    "lat": 50.015879166666664,
    "lng": 14.430030277777778,
    "place": "Hobby market OBI Praha 4 - Mod\u0159any",
    "street": "Lhoteck\u00e1 446",
    "region": "Hlavn\u00ed m\u011bsto Praha",
    "city": "Praha 4",
    "zip": "143 00",
    "type": "wc"
  },
  {
    "id": 33,
    "lat": 50.05584333333333,
    "lng": 14.470390277777778,
    "place": "Hypermarket Kaufland",
    "street": "U plyn\u00e1rny 1432/64",
    "region": "Hlavn\u00ed m\u011bsto Praha",
    "city": "Praha 4 - Michle",
    "zip": "140 00",
    "type": "wc"
  },
  {
    "id": 34,
    "lat": 50.0478175,
    "lng": 14.455027777777778,
    "place": "L\u00e1vka Brumlovka",
    "street": "Vysko\u010dilova 2",
    "region": "Hlavn\u00ed m\u011bsto Praha",
    "city": "Praha 4",
    "zip": "140 00",
    "type": "platform"
  },
  {
    "id": 35,
    "lat": 50.061841666666666,
    "lng": 14.42666361111111,
    "place": "Magistr\u00e1t hl. m. Prahy, Na Pankr\u00e1ci 1685/17",
    "street": "19",
    "region": "Hlavn\u00ed m\u011bsto Praha",
    "city": "Praha 4",
    "zip": "140 00",
    "type": "wc"
  },
  {
    "id": 36,
    "lat": 50.05104444444444,
    "lng": 14.439120277777779,
    "place": "Obchodn\u00ed centrum Ark\u00e1dy Pankr\u00e1c",
    "street": "Na Pankr\u00e1ci 86",
    "region": "Hlavn\u00ed m\u011bsto Praha",
    "city": "Praha 4",
    "zip": "140 00",
    "type": "wc"
  },
  {
    "id": 37,
    "lat": 50.02626194444444,
    "lng": 14.43231611111111,
    "place": "Obchodn\u00ed centrum Novo Plaza",
    "street": "Novodvorsk\u00e1 1800/136",
    "region": "Hlavn\u00ed m\u011bsto Praha",
    "city": "Praha 4",
    "zip": "140 00",
    "type": "wc"
  },
  {
    "id": 38,
    "lat": 50.032066111111114,
    "lng": 14.490989166666665,
    "place": "Obchodn\u00ed centrum Westfield Chodov - ve\u0159ejn\u00e9 WC",
    "street": "Roztylsk\u00e1 2321/19",
    "region": "Hlavn\u00ed m\u011bsto Praha",
    "city": "Praha 4",
    "zip": "148 00",
    "type": "wc"
  },
  {
    "id": 39,
    "lat": 50.00543777777778,
    "lng": 14.418051666666667,
    "place": "Obchodn\u00ed d\u016fm Mod\u0159any - ve\u0159ejn\u00e9 WC, pas\u00e1\u017e v p\u0159\u00edzem\u00ed",
    "street": "Sofijsk\u00e9 n\u00e1m. 3400/6",
    "region": "Hlavn\u00ed m\u011bsto Praha",
    "city": "Praha 4",
    "zip": "143 00",
    "type": "wc"
  },
  {
    "id": 40,
    "lat": 50.00553472222222,
    "lng": 14.415046111111112,
    "place": "Poliklinika Mod\u0159any",
    "street": "Soukalova 3355/3",
    "region": "Hlavn\u00ed m\u011bsto Praha",
    "city": "Praha 4",
    "zip": "143 00",
    "type": "wc"
  },
  {
    "id": 41,
    "lat": 50.04465861111111,
    "lng": 14.448758055555556,
    "place": "Stanice metra Bud\u011bjovick\u00e1",
    "street": "",
    "region": "Hlavn\u00ed m\u011bsto Praha",
    "city": "Praha 4",
    "zip": "140 00",
    "type": "wc"
  },
  {
    "id": 42,
    "lat": 50.002311666666664,
    "lng": 14.413930833333334,
    "place": "\u00da\u0159ad M\u011bstsk\u00e9 \u010d\u00e1sti Prahy 12 \u2013 Radnice",
    "street": "Gener\u00e1la \u0160i\u0161ky 2375/6",
    "region": "Hlavn\u00ed m\u011bsto Praha",
    "city": "Praha 4 - Mod\u0159any",
    "zip": "143 00",
    "type": "wc"
  },
  {
    "id": 43,
    "lat": 50.004308055555555,
    "lng": 14.39665111111111,
    "place": "Aurum Pacific GC, K S\u00e1dk\u00e1m 158",
    "street": "Lahovice",
    "region": "Hlavn\u00ed m\u011bsto Praha",
    "city": "Praha 5",
    "zip": "150 00",
    "type": "wc"
  },
  {
    "id": 44,
    "lat": 50.04160777777778,
    "lng": 14.315361666666668,
    "place": "Hypermarket Makro Cash & Carry Stod\u016flky",
    "street": "Jeremi\u00e1\u0161ova 1249/7",
    "region": "Hlavn\u00ed m\u011bsto Praha",
    "city": "Praha 5",
    "zip": "155 00",
    "type": "wc"
  },
  {
    "id": 45,
    "lat": 50.07506194444445,
    "lng": 14.407485000000001,
    "place": "Krajsk\u00fd \u00fa\u0159ad St\u0159edo\u010desk\u00e9ho kraje",
    "street": "Zborovsk\u00e1 11",
    "region": "Hlavn\u00ed m\u011bsto Praha",
    "city": "Praha 5",
    "zip": "150 00",
    "type": "wc"
  },
  {
    "id": 46,
    "lat": 50.072902222222226,
    "lng": 14.402055,
    "place": "N\u00e1kupn\u00ed centrum Nov\u00fd Sm\u00edchov",
    "street": "Plze\u0148sk\u00e1 8",
    "region": "Hlavn\u00ed m\u011bsto Praha",
    "city": "Praha 5",
    "zip": "150 00",
    "type": "wc"
  },
  {
    "id": 47,
    "lat": 50.044060277777774,
    "lng": 14.331551666666666,
    "place": "Obchodn\u00ed centrum Lu\u017einy",
    "street": "Archeologick\u00e1 2256/1",
    "region": "Hlavn\u00ed m\u011bsto Praha",
    "city": "Praha 5",
    "zip": "155 00",
    "type": "wc"
  },
  {
    "id": 48,
    "lat": 50.05397111111111,
    "lng": 14.288412777777777,
    "place": "OC Metropole Zli\u010d\u00edn",
    "street": "\u0158evnick\u00e1 1",
    "region": "Hlavn\u00ed m\u011bsto Praha",
    "city": "Praha 5",
    "zip": "155 21",
    "type": "wc"
  },
  {
    "id": 49,
    "lat": 50.07428083333334,
    "lng": 14.401546944444444,
    "place": "Poliklinika Kartouzsk\u00e1, Kartouzsk\u00e1 6",
    "street": "Sm\u00edchov",
    "region": "Hlavn\u00ed m\u011bsto Praha",
    "city": "Praha 5",
    "zip": "150 00",
    "type": "wc"
  },
  {
    "id": 50,
    "lat": 50.07049944444445,
    "lng": 14.403584444444444,
    "place": "Stanice metra And\u011bl",
    "street": "",
    "region": "Hlavn\u00ed m\u011bsto Praha",
    "city": "Praha 5 - Sm\u00edchov",
    "zip": "150 00",
    "type": "wc"
  },
  {
    "id": 51,
    "lat": 50.05451194444444,
    "lng": 14.370779166666667,
    "place": "Stanice metra Jinonice",
    "street": "",
    "region": "Hlavn\u00ed m\u011bsto Praha",
    "city": "Praha 5",
    "zip": "158 00",
    "type": "wc"
  },
  {
    "id": 52,
    "lat": 50.05840694444444,
    "lng": 14.389203055555555,
    "place": "Stanice metra Radlick\u00e1",
    "street": "",
    "region": "Hlavn\u00ed m\u011bsto Praha",
    "city": "Praha 5",
    "zip": "150 00",
    "type": "wc"
  },
  {
    "id": 53,
    "lat": 50.054469999999995,
    "lng": 14.29056638888889,
    "place": "Stanice metra Zli\u010d\u00edn",
    "street": "",
    "region": "Hlavn\u00ed m\u011bsto Praha",
    "city": "Praha 5 - Zli\u010d\u00edn",
    "zip": "155 00",
    "type": "wc"
  },
  {
    "id": 54,
    "lat": 50.05383277777778,
    "lng": 14.368055833333333,
    "place": "Univerzita Karlova v Praze - Fakulta soci\u00e1ln\u00edch v\u011bd",
    "street": "U K\u0159\u00ed\u017ee 611/3",
    "region": "Hlavn\u00ed m\u011bsto Praha",
    "city": "Praha 5",
    "zip": "158 00",
    "type": "wc"
  },
  {
    "id": 55,
    "lat": 50.05430111111111,
    "lng": 14.368598333333335,
    "place": "Univerzita Karlova v Praze - Fakulta soci\u00e1ln\u00edch v\u011bd",
    "street": "U K\u0159\u00ed\u017ee 661/8",
    "region": "Hlavn\u00ed m\u011bsto Praha",
    "city": "Praha 5",
    "zip": "158 00",
    "type": "wc"
  },
  {
    "id": 56,
    "lat": 49.985929444444444,
    "lng": 14.364725,
    "place": "\u017delezni\u010dn\u00ed stanice Praha 5 - Radot\u00edn \u2013 v\u00fdpravn\u00ed budova",
    "street": "Vr\u00e1\u017esk\u00e1 43",
    "region": "Hlavn\u00ed m\u011bsto Praha",
    "city": "Praha 5 \u2013 Radot\u00edn",
    "zip": "153 00",
    "type": "wc"
  },
  {
    "id": 57,
    "lat": 50.13003027777778,
    "lng": 14.373817777777779,
    "place": "\u010cesk\u00e1 zem\u011bd\u011blsk\u00e1 univerzita v Praze",
    "street": "Kam\u00fdck\u00e1 129",
    "region": "Hlavn\u00ed m\u011bsto Praha",
    "city": "Praha 6 - Suchdol",
    "zip": "165 00",
    "type": "wc"
  },
  {
    "id": 58,
    "lat": 50.13003027777778,
    "lng": 14.373817777777779,
    "place": "\u010cesk\u00e1 zem\u011bd\u011blsk\u00e1 univerzita v Praze",
    "street": "Kam\u00fdck\u00e1 129",
    "region": "Hlavn\u00ed m\u011bsto Praha",
    "city": "Praha 6 - Suchdol",
    "zip": "165 00",
    "type": "wc"
  },
  {
    "id": 59,
    "lat": 50.13003027777778,
    "lng": 14.373817777777779,
    "place": "\u010cesk\u00e1 zem\u011bd\u011blsk\u00e1 univerzita v Praze",
    "street": "Kam\u00fdck\u00e1 129",
    "region": "Hlavn\u00ed m\u011bsto Praha",
    "city": "Praha 6 - Suchdol",
    "zip": "165 00",
    "type": "wc"
  },
  {
    "id": 60,
    "lat": 50.13003027777778,
    "lng": 14.373817777777779,
    "place": "\u010cesk\u00e1 zem\u011bd\u011blsk\u00e1 univerzita v Praze",
    "street": "Kam\u00fdck\u00e1 129",
    "region": "Hlavn\u00ed m\u011bsto Praha",
    "city": "Praha 6 - Suchdol",
    "zip": "165 00",
    "type": "wc"
  },
  {
    "id": 61,
    "lat": 50.07802916666667,
    "lng": 14.309878055555556,
    "place": "Hobby market OBI Praha 6 - Ruzyn\u011b",
    "street": "V\u00fdtvarn\u00e1 3",
    "region": "Hlavn\u00ed m\u011bsto Praha",
    "city": "Praha 6",
    "zip": "161 00",
    "type": "wc"
  },
  {
    "id": 62,
    "lat": 50.077423055555556,
    "lng": 14.339270555555556,
    "place": "Hypermarket Kaufland",
    "street": "B\u011blohorsk\u00e1 2426/205",
    "region": "Hlavn\u00ed m\u011bsto Praha",
    "city": "Praha 6 - Vypich",
    "zip": "169 00",
    "type": "wc"
  },
  {
    "id": 63,
    "lat": 50.08703722222222,
    "lng": 14.360876944444444,
    "place": "Magistr\u00e1t hl. m. Prahy",
    "street": "Radimova 39",
    "region": "Hlavn\u00ed m\u011bsto Praha",
    "city": "Praha 6",
    "zip": "169 00",
    "type": "wc"
  },
  {
    "id": 64,
    "lat": 50.09865555555556,
    "lng": 14.363678055555555,
    "place": "Stanice metra Bo\u0159islavka",
    "street": "",
    "region": "Hlavn\u00ed m\u011bsto Praha",
    "city": "Praha 6",
    "zip": "160 00",
    "type": "wc"
  },
  {
    "id": 65,
    "lat": 50.10050972222222,
    "lng": 14.392753611111111,
    "place": "Stanice metra Dejvick\u00e1",
    "street": "",
    "region": "Hlavn\u00ed m\u011bsto Praha",
    "city": "Praha 6 - Dejvice",
    "zip": "160 00",
    "type": "wc"
  },
  {
    "id": 66,
    "lat": 50.095466388888894,
    "lng": 14.346590277777779,
    "place": "Stanice metra N\u00e1dra\u017e\u00ed Veleslav\u00edn",
    "street": "",
    "region": "Hlavn\u00ed m\u011bsto Praha",
    "city": "Praha 6",
    "zip": "160 00",
    "type": "wc"
  },
  {
    "id": 67,
    "lat": 50.08730638888889,
    "lng": 14.344646944444445,
    "place": "Stanice metra Pet\u0159iny",
    "street": "v\u00fdstup k ulici Na Pet\u0159in\u00e1ch",
    "region": "Hlavn\u00ed m\u011bsto Praha",
    "city": "Praha 6",
    "zip": "162 00",
    "type": "wc"
  },
  {
    "id": 68,
    "lat": 50.09312583333334,
    "lng": 14.33507388888889,
    "place": "Univerzita Karlova v Praze - Fakulta t\u011blesn\u00e9 v\u00fdchovy a sportu",
    "street": "Jos\u00e9 Mart\u00edho 31",
    "region": "Hlavn\u00ed m\u011bsto Praha",
    "city": "Praha 6",
    "zip": "162 52",
    "type": "wc"
  },
  {
    "id": 69,
    "lat": 50.10173888888889,
    "lng": 14.401671944444445,
    "place": "\u00da\u0159ad m\u011bstsk\u00e9 \u010d\u00e1sti Praha 6",
    "street": "Dr. Zikmunda Wintra 768/20",
    "region": "Hlavn\u00ed m\u011bsto Praha",
    "city": "Praha 6",
    "zip": "160 52",
    "type": "wc"
  },
  {
    "id": 70,
    "lat": 50.06950500000001,
    "lng": 14.304414722222223,
    "place": "Z\u00e1kladn\u00ed um\u011bleck\u00e1 \u0161kola Blatiny",
    "street": "\u0160panielova 50",
    "region": "Hlavn\u00ed m\u011bsto Praha",
    "city": "Praha 6",
    "zip": "160 00",
    "type": "wc"
  },
  {
    "id": 71,
    "lat": 50.09705666666667,
    "lng": 14.398902222222222,
    "place": "\u017delezni\u010dn\u00ed stanice Praha - Dejvice",
    "street": "V\u00e1clavkova 169/1",
    "region": "Hlavn\u00ed m\u011bsto Praha",
    "city": "Praha 6",
    "zip": "160 00",
    "type": "wc"
  },
  {
    "id": 72,
    "lat": 50.11774388888889,
    "lng": 14.41521111111111,
    "place": "Botanick\u00e1 zahrada hl. m. Prahy",
    "street": "N\u00e1dvorn\u00ed 134",
    "region": "Hlavn\u00ed m\u011bsto Praha",
    "city": "Praha 7",
    "zip": "171 00",
    "type": "wc"
  },
  {
    "id": 73,
    "lat": 50.097191111111115,
    "lng": 14.434007777777778,
    "place": "Finan\u010dn\u00ed \u00fa\u0159ad pro Prahu 6 a 7",
    "street": "n\u00e1b\u0159. Kpt. Jaro\u0161e 1000/7",
    "region": "Hlavn\u00ed m\u011bsto Praha",
    "city": "Praha 7",
    "zip": "170 00",
    "type": "wc"
  },
  {
    "id": 74,
    "lat": 50.09722194444445,
    "lng": 14.424961111111111,
    "place": "N\u00e1rodn\u00ed technick\u00e9 muzeum",
    "street": "Kosteln\u00ed 42",
    "region": "Hlavn\u00ed m\u011bsto Praha",
    "city": "Praha 7",
    "zip": "170 00",
    "type": "wc"
  },
  {
    "id": 75,
    "lat": 50.108734166666665,
    "lng": 14.436416944444444,
    "place": "Pra\u017esk\u00e1 Tepl\u00e1rensk\u00e1 - 1. patro",
    "street": "Partyz\u00e1nsk\u00e1 7",
    "region": "Hlavn\u00ed m\u011bsto Praha",
    "city": "Praha 7",
    "zip": "170 00",
    "type": "wc"
  },
  {
    "id": 76,
    "lat": 50.10270694444445,
    "lng": 14.425311944444443,
    "place": "Restaurace a studentsk\u00fd klub na Akademii V\u00fdtvarn\u00fdch Um\u011bn\u00ed v Praze",
    "street": "U Akademie 172/4",
    "region": "Hlavn\u00ed m\u011bsto Praha",
    "city": "Praha 7",
    "zip": "170 00",
    "type": "wc"
  },
  {
    "id": 77,
    "lat": 50.10897444444445,
    "lng": 14.439560833333333,
    "place": "Stanice metra N\u00e1dra\u017e\u00ed Hole\u0161ovice",
    "street": "",
    "region": "Hlavn\u00ed m\u011bsto Praha",
    "city": "Praha 7 - Hole\u0161ovice",
    "zip": "170 00",
    "type": "wc"
  },
  {
    "id": 78,
    "lat": 50.098915000000005,
    "lng": 14.438361111111112,
    "place": "Stanice metra Vltavsk\u00e1",
    "street": "",
    "region": "Hlavn\u00ed m\u011bsto Praha",
    "city": "Praha 7 - Hole\u0161ovice",
    "zip": "170 00",
    "type": "wc"
  },
  {
    "id": 79,
    "lat": 50.11065666666667,
    "lng": 14.439681944444445,
    "place": "\u017delezni\u010dn\u00ed stanice Praha \u2013 Hole\u0161ovice",
    "street": "Partyz\u00e1nsk\u00e1 24",
    "region": "Hlavn\u00ed m\u011bsto Praha",
    "city": "Praha 7 - Hole\u0161ovice",
    "zip": "170 00",
    "type": "wc"
  },
  {
    "id": 80,
    "lat": 50.08954388888889,
    "lng": 14.439690555555556,
    "place": "Autobusov\u00fd termin\u00e1l Florenc",
    "street": "Pod V\u00fdtopnou 13/10",
    "region": "Hlavn\u00ed m\u011bsto Praha",
    "city": "Praha 8",
    "zip": "186 00",
    "type": "wc"
  },
  {
    "id": 81,
    "lat": 50.125013611111115,
    "lng": 14.455544444444444,
    "place": "\u010cesk\u00fd \u00fa\u0159ad zem\u011bm\u011b\u0159ick\u00fd a katastr\u00e1ln\u00ed",
    "street": "Pod s\u00eddli\u0161t\u011bm 1800/9",
    "region": "Hlavn\u00ed m\u011bsto Praha",
    "city": "Praha 8",
    "zip": "182 11",
    "type": "wc"
  },
  {
    "id": 82,
    "lat": 50.127517777777776,
    "lng": 14.482275277777777,
    "place": "Hypermarket Kaufland",
    "street": "St\u0159elni\u010dn\u00e1 2270/46",
    "region": "Hlavn\u00ed m\u011bsto Praha",
    "city": "Praha 8 - Kobylisy",
    "zip": "180 00",
    "type": "wc"
  },
  {
    "id": 83,
    "lat": 50.10205,
    "lng": 14.468337777777778,
    "place": "Hypermarket Kaufland",
    "street": "Voct\u00e1\u0159ova 2401/8",
    "region": "Hlavn\u00ed m\u011bsto Praha",
    "city": "Praha 8 - Palmovka",
    "zip": "180 00",
    "type": "wc"
  },
  {
    "id": 84,
    "lat": 50.093498333333336,
    "lng": 14.452424166666665,
    "place": "Meteor Centre Office Park, budova D",
    "street": "Sokolovsk\u00e1 100/94",
    "region": "Hlavn\u00ed m\u011bsto Praha",
    "city": "Praha 8",
    "zip": "186 00",
    "type": "wc"
  },
  {
    "id": 85,
    "lat": 50.12772888888889,
    "lng": 14.417362222222222,
    "place": "Obchodn\u00ed centrum Krakov",
    "street": "Lod\u017esk\u00e1 850/6",
    "region": "Hlavn\u00ed m\u011bsto Praha",
    "city": "Praha 8 - Troja",
    "zip": "181 00",
    "type": "wc"
  },
  {
    "id": 86,
    "lat": 50.10385138888889,
    "lng": 14.47475611111111,
    "place": "Stanice metra Palmovka",
    "street": "",
    "region": "Hlavn\u00ed m\u011bsto Praha",
    "city": "Praha 8 - Palmovka",
    "zip": "180 00",
    "type": "wc"
  },
  {
    "id": 87,
    "lat": 50.10782805555556,
    "lng": 14.584760000000001,
    "place": "C\u010cM \u2013 Centrum \u010cern\u00fd Most",
    "street": "Chlumeck\u00e1 6",
    "region": "Hlavn\u00ed m\u011bsto Praha",
    "city": "Praha 9",
    "zip": "198 00",
    "type": "wc"
  },
  {
    "id": 88,
    "lat": 50.07994694444445,
    "lng": 14.629033055555556,
    "place": "\u010cerpac\u00ed stanice Lukoil",
    "street": "\u010ceskobrodsk\u00e1",
    "region": "Hlavn\u00ed m\u011bsto Praha",
    "city": "Praha 9",
    "zip": "190 00",
    "type": "wc"
  },
  {
    "id": 90,
    "lat": 50.11153083333333,
    "lng": 14.58166111111111,
    "place": "Hobby market Hornbach Praha 9 - \u010cern\u00fd Most",
    "street": "Chlumeck\u00e1 2398",
    "region": "Hlavn\u00ed m\u011bsto Praha",
    "city": "Praha 9",
    "zip": "198 00",
    "type": "wc"
  },
  {
    "id": 91,
    "lat": 50.12108611111111,
    "lng": 14.507153055555555,
    "place": "Hobby market OBI Praha 9 - Prosek",
    "street": "Proseck\u00e1 78",
    "region": "Hlavn\u00ed m\u011bsto Praha",
    "city": "Praha 9",
    "zip": "190 00",
    "type": "wc"
  },
  {
    "id": 92,
    "lat": 50.151779999999995,
    "lng": 14.506754166666667,
    "place": "Hypermarket Globus, Kosteleck\u00e1 823",
    "street": "\u010cakovice",
    "region": "Hlavn\u00ed m\u011bsto Praha",
    "city": "Praha 9",
    "zip": "190 00",
    "type": "wc"
  },
  {
    "id": 93,
    "lat": 50.09282694444445,
    "lng": 14.4995575,
    "place": "Hypermarket Kaufland Praha - Jarov",
    "street": "V T\u0159e\u0161\u0148ovce 232/2",
    "region": "Hlavn\u00ed m\u011bsto Praha",
    "city": "Praha 9 - Jarov",
    "zip": "190 00",
    "type": "wc"
  },
  {
    "id": 94,
    "lat": 50.11148527777778,
    "lng": 14.577610833333333,
    "place": "Hypermarket Makro Cash & Carry \u010cern\u00fd Most",
    "street": "Chlumeck\u00e1 2424",
    "region": "Hlavn\u00ed m\u011bsto Praha",
    "city": "Praha 9 - \u010cern\u00fd Most",
    "zip": "193 00",
    "type": "wc"
  },
  {
    "id": 95,
    "lat": 50.11028888888889,
    "lng": 14.5015875,
    "place": "N\u00e1kupn\u00ed centrum F\u00e9nix",
    "street": "Freyova 945/35",
    "region": "Hlavn\u00ed m\u011bsto Praha",
    "city": "Praha 9",
    "zip": "190 00",
    "type": "wc"
  },
  {
    "id": 96,
    "lat": 50.10369111111111,
    "lng": 14.493333888888888,
    "place": "O2 Arena",
    "street": "\u010ceskomoravsk\u00e1 17",
    "region": "Hlavn\u00ed m\u011bsto Praha",
    "city": "Praha 9",
    "zip": "190 00",
    "type": "wc"
  },
  {
    "id": 97,
    "lat": 50.11038305555556,
    "lng": 14.500042777777777,
    "place": "\u00da\u0159ad m\u011bstsk\u00e9 \u010d\u00e1sti Praha 9",
    "street": "Sokolovsk\u00e1 324/14",
    "region": "Hlavn\u00ed m\u011bsto Praha",
    "city": "Praha 9",
    "zip": "190 00",
    "type": "wc"
  },
  {
    "id": 98,
    "lat": 50.14905805555556,
    "lng": 14.519603333333334,
    "place": "\u017delezni\u010dn\u00ed stanice - Praha \u010cakovice",
    "street": "Jizersk\u00e1 78/2",
    "region": "Hlavn\u00ed m\u011bsto Praha",
    "city": "Praha 9",
    "zip": "196 00",
    "type": "wc"
  },
  {
    "id": 99,
    "lat": 50.08730416666667,
    "lng": 14.663581944444445,
    "place": "\u017delezni\u010dn\u00ed stanice Praha - Kl\u00e1novice",
    "street": "U Trativodu 91",
    "region": "Hlavn\u00ed m\u011bsto Praha",
    "city": "Praha 9 - Kl\u00e1novice",
    "zip": "190 14",
    "type": "wc"
  },
  {
    "id": 100,
    "lat": 50.101444444444446,
    "lng": 14.50181888888889,
    "place": "\u017delezni\u010dn\u00ed stanice Praha \u2013 Libe\u0148, v\u00fdpravn\u00ed budova",
    "street": "\u010ceskomoravsk\u00e1 316/24",
    "region": "Hlavn\u00ed m\u011bsto Praha",
    "city": "Praha 9 \u2013 Libe\u0148",
    "zip": "190 00",
    "type": "wc"
  },
  {
    "id": 101,
    "lat": 50.07250861111111,
    "lng": 14.542112777777778,
    "place": "Europark \u0160t\u011brboholy",
    "street": "N\u00e1kupn\u00ed 389/3",
    "region": "Hlavn\u00ed m\u011bsto Praha",
    "city": "Praha 10",
    "zip": "102 00",
    "type": "wc"
  },
  {
    "id": 102,
    "lat": 50.063404999999996,
    "lng": 14.453756388888888,
    "place": "Finan\u010dn\u00ed \u00fa\u0159ad pro Prahu 10",
    "street": "Petrohradsk\u00e1 6",
    "region": "Hlavn\u00ed m\u011bsto Praha",
    "city": "Praha 10",
    "zip": "101 00",
    "type": "wc"
  },
  {
    "id": 103,
    "lat": 50.07322805555556,
    "lng": 14.544529166666667,
    "place": "Hobby market OBI Praha 10 - \u0160t\u011brboholy",
    "street": "N\u00e1kupn\u00ed 4",
    "region": "Hlavn\u00ed m\u011bsto Praha",
    "city": "Praha 10",
    "zip": "102 00",
    "type": "wc"
  },
  {
    "id": 104,
    "lat": 50.067211111111114,
    "lng": 14.468211111111112,
    "place": "Hypermarket Tesco Eden",
    "street": "U Slavie 1527/3",
    "region": "Hlavn\u00ed m\u011bsto Praha",
    "city": "Praha 10 - Vr\u0161ovice",
    "zip": "100 00",
    "type": "wc"
  },
  {
    "id": 105,
    "lat": 50.070751111111115,
    "lng": 14.510896666666667,
    "place": "Hypermarket Tesco Skalka",
    "street": "P\u0159etluck\u00e1 3295/50",
    "region": "Hlavn\u00ed m\u011bsto Praha",
    "city": "Praha 10 - Stra\u0161nice",
    "zip": "100 00",
    "type": "wc"
  },
  {
    "id": 106,
    "lat": 50.05358722222222,
    "lng": 14.517724722222223,
    "place": "N\u00e1kupn\u00ed centrum VIVO! Hostiva\u0159",
    "street": "\u0160vehlova 32",
    "region": "Hlavn\u00ed m\u011bsto Praha",
    "city": "Praha 10",
    "zip": "101 00",
    "type": "wc"
  },
  {
    "id": 107,
    "lat": 50.08077388888889,
    "lng": 14.506693888888888,
    "place": "Sportovn\u00ed klub voz\u00ed\u010dk\u00e1\u0159\u016f Praha",
    "street": "Ov\u010d\u00e1rsk\u00e1 471",
    "region": "Hlavn\u00ed m\u011bsto Praha",
    "city": "Praha 10 - Male\u0161ice",
    "zip": "108 00",
    "type": "wc"
  },
  {
    "id": 108,
    "lat": 50.06810388888889,
    "lng": 14.507730555555556,
    "place": "Stanice metra Skalka",
    "street": "",
    "region": "Hlavn\u00ed m\u011bsto Praha",
    "city": "Praha 10 - Stra\u0161nice",
    "zip": "100 00",
    "type": "wc"
  },
  {
    "id": 109,
    "lat": 50.06246611111111,
    "lng": 14.504328888888889,
    "place": "\u017delezni\u010dn\u00ed stanice Praha - Zahradn\u00ed M\u011bsto",
    "street": "Dol\u00edneck\u00e1 3161/2",
    "region": "Hlavn\u00ed m\u011bsto Praha",
    "city": "Praha 10 - Stra\u0161nice",
    "zip": "100 00",
    "type": "wc"
  },
  {
    "id": 110,
    "lat": 50.04969777777777,
    "lng": 14.297638055555556,
    "place": "HOMEPARK Zli\u010d\u00edn - kav\u00e1rna Starbucks",
    "street": "Skandin\u00e1vsk\u00e1 15a",
    "region": "Hlavn\u00ed m\u011bsto Praha",
    "city": "Praha 13",
    "zip": "155 00",
    "type": "wc"
  },
  {
    "id": 111,
    "lat": 50.045789166666665,
    "lng": 14.322199444444443,
    "place": "Obchodn\u00ed centrum Luka Living rental apartmants & shopping center",
    "street": "Muka\u0159ovsk\u00e9ho 2590/2",
    "region": "Hlavn\u00ed m\u011bsto Praha",
    "city": "Praha 13 - Stod\u016flky",
    "zip": "155 00",
    "type": "wc"
  },
  {
    "id": 112,
    "lat": 50.04972083333333,
    "lng": 14.341564166666668,
    "place": "Stanice metra H\u016frka",
    "street": "",
    "region": "Hlavn\u00ed m\u011bsto Praha",
    "city": "Praha 13",
    "zip": "158 00",
    "type": "wc"
  },
  {
    "id": 113,
    "lat": 50.045360555555554,
    "lng": 14.3217325,
    "place": "Stanice metra Luka",
    "street": "",
    "region": "Hlavn\u00ed m\u011bsto Praha",
    "city": "Praha 13 - Stod\u016flky",
    "zip": "155 00",
    "type": "wc"
  },
  {
    "id": 114,
    "lat": 50.04458611111111,
    "lng": 14.331474166666666,
    "place": "Stanice metra Lu\u017einy",
    "street": "",
    "region": "Hlavn\u00ed m\u011bsto Praha",
    "city": "Praha 13",
    "zip": "155 00",
    "type": "wc"
  },
  {
    "id": 115,
    "lat": 50.05094916666666,
    "lng": 14.352348333333333,
    "place": "Stanice metra Nov\u00e9 Butovice",
    "street": "",
    "region": "Hlavn\u00ed m\u011bsto Praha",
    "city": "Praha 13",
    "zip": "158 00",
    "type": "wc"
  },
  {
    "id": 116,
    "lat": 50.04665361111111,
    "lng": 14.307239444444445,
    "place": "Stanice metra Stod\u016flky",
    "street": "",
    "region": "Hlavn\u00ed m\u011bsto Praha",
    "city": "Praha 13 - Stod\u016flky",
    "zip": "155 00",
    "type": "wc"
  },
  {
    "id": 117,
    "lat": 50.044536666666666,
    "lng": 14.568618888888889,
    "place": "Hypermarket Kaufland",
    "street": "Hornom\u011bcholupsk\u00e1 763",
    "region": "Hlavn\u00ed m\u011bsto Praha",
    "city": "Praha 15 Horn\u00ed M\u011bcholupy",
    "zip": "109 00",
    "type": "wc"
  },
  {
    "id": 118,
    "lat": 50.03863583333333,
    "lng": 14.561753888888889,
    "place": "Poliklinika Petrovice",
    "street": "Ohmova 271",
    "region": "Hlavn\u00ed m\u011bsto Praha",
    "city": "Praha 15",
    "zip": "109 00",
    "type": "wc"
  },
  {
    "id": 119,
    "lat": 50.11208805555556,
    "lng": 14.58061,
    "place": "Parkovac\u00ed d\u016fm P+R \u010cern\u00fd Most 1",
    "street": "Chlumeck\u00e1 2398",
    "region": "Hlavn\u00ed m\u011bsto Praha",
    "city": "Praha 20",
    "zip": "198 00",
    "type": "wc"
  },
  {
    "id": 122,
    "lat": 50.03409055555555,
    "lng": 14.591569722222223,
    "place": "\u017delezni\u010dn\u00ed stanice Praha - Uh\u0159\u00edn\u011bves",
    "street": "U Star\u00e9ho n\u00e1dra\u017e\u00ed 262",
    "region": "Hlavn\u00ed m\u011bsto Praha",
    "city": "Praha 22 - Uh\u0159\u00edn\u011bves",
    "zip": "104 00",
    "type": "wc"
  },
  {
    "id": 123,
    "lat": 50.501598888888886,
    "lng": 14.80103,
    "place": "M\u011bstsk\u00fd \u00fa\u0159ad B\u011bl\u00e1 pod Bezd\u011bzem",
    "street": "Masarykovo n\u00e1m\u011bst\u00ed 90",
    "region": "St\u0159edo\u010desk\u00fd kraj",
    "city": "B\u011bl\u00e1 pod Bezd\u011bzem",
    "zip": "294 21",
    "type": "wc"
  },
  {
    "id": 124,
    "lat": 50.278637777777774,
    "lng": 14.830604166666667,
    "place": "\u010cerpac\u00ed stanice PAP OIL",
    "street": "U D\u00e1lnice",
    "region": "St\u0159edo\u010desk\u00fd kraj",
    "city": "Ben\u00e1tky nad Jizerou",
    "zip": "294 71",
    "type": "wc"
  },
  {
    "id": 125,
    "lat": 50.28761083333333,
    "lng": 14.837602222222223,
    "place": "Klub senior\u016f",
    "street": "N\u00e1m. 17. listopadu",
    "region": "St\u0159edo\u010desk\u00fd kraj",
    "city": "Ben\u00e1tky nad Jizerou",
    "zip": "294 71",
    "type": "wc"
  },
  {
    "id": 126,
    "lat": 50.290299166666664,
    "lng": 14.818767777777778,
    "place": "Sportovn\u00ed hala",
    "street": "",
    "region": "St\u0159edo\u010desk\u00fd kraj",
    "city": "Ben\u00e1tky nad Jizerou",
    "zip": "294 71",
    "type": "wc"
  },
  {
    "id": 127,
    "lat": 50.292175,
    "lng": 14.826825,
    "place": "\u00da\u0159ad pr\u00e1ce \u010cR Ben\u00e1tky nad Jizerou",
    "street": "Van\u011b\u010dkova ul.",
    "region": "St\u0159edo\u010desk\u00fd kraj",
    "city": "Ben\u00e1tky nad Jizerou",
    "zip": "294 71",
    "type": "wc"
  },
  {
    "id": 128,
    "lat": 50.28491972222222,
    "lng": 14.826855833333333,
    "place": "Ve\u0159ejn\u00e9 WC Na Burse",
    "street": "",
    "region": "St\u0159edo\u010desk\u00fd kraj",
    "city": "Ben\u00e1tky nad Jizerou",
    "zip": "294 71",
    "type": "wc"
  },
  {
    "id": 129,
    "lat": 50.29089805555555,
    "lng": 14.82239388888889,
    "place": "Ve\u0159ejn\u00e9 WC",
    "street": "Z\u00e1mek",
    "region": "St\u0159edo\u010desk\u00fd kraj",
    "city": "Ben\u00e1tky nad Jizerou",
    "zip": "294 71",
    "type": "wc"
  },
  {
    "id": 130,
    "lat": 50.29002694444444,
    "lng": 14.818203055555555,
    "place": "Zimn\u00ed stadion",
    "street": "M\u011blnick\u00e1 35",
    "region": "St\u0159edo\u010desk\u00fd kraj",
    "city": "Ben\u00e1tky nad Jizerou",
    "zip": "294 71",
    "type": "wc"
  },
  {
    "id": 131,
    "lat": 49.77965111111111,
    "lng": 14.683821666666667,
    "place": "Autobusov\u00e9 n\u00e1dra\u017e\u00ed \u2013 termin\u00e1l Bene\u0161ov",
    "street": "N\u00e1dra\u017en\u00ed 2426",
    "region": "St\u0159edo\u010desk\u00fd kraj",
    "city": "Bene\u0161ov",
    "zip": "256 01",
    "type": "wc"
  },
  {
    "id": 132,
    "lat": 49.78053,
    "lng": 14.703171944444444,
    "place": "\u010cerpac\u00ed stanice \u010cEPRO - EuroOil",
    "street": "Vla\u0161imsk\u00e1 2168",
    "region": "St\u0159edo\u010desk\u00fd kraj",
    "city": "Bene\u0161ov",
    "zip": "256 01",
    "type": "wc"
  },
  {
    "id": 133,
    "lat": 49.79353111111111,
    "lng": 14.681171944444444,
    "place": "\u010cerpac\u00ed stanice OMV \u010cerven\u00e9 Vr\u0161ky",
    "street": "",
    "region": "St\u0159edo\u010desk\u00fd kraj",
    "city": "Bene\u0161ov",
    "zip": "256 01",
    "type": "wc"
  },
  {
    "id": 134,
    "lat": 49.77817388888889,
    "lng": 14.684446944444444,
    "place": "\u010cSSZ - OSSZ Bene\u0161ov",
    "street": "N\u00e1dra\u017en\u00ed 2120",
    "region": "St\u0159edo\u010desk\u00fd kraj",
    "city": "Bene\u0161ov",
    "zip": "256 01",
    "type": "wc"
  },
  {
    "id": 135,
    "lat": 49.79381111111111,
    "lng": 14.682826944444443,
    "place": "Hypermarket Kaufland",
    "street": "\u010cerven\u00e9 Vr\u0161ky 2217",
    "region": "St\u0159edo\u010desk\u00fd kraj",
    "city": "Bene\u0161ov",
    "zip": "256 01",
    "type": "wc"
  },
  {
    "id": 136,
    "lat": 49.782415,
    "lng": 14.683822222222222,
    "place": "\u00da\u0159ad pr\u00e1ce \u010cR Bene\u0161ov",
    "street": "Dukelsk\u00e1 2080",
    "region": "St\u0159edo\u010desk\u00fd kraj",
    "city": "Bene\u0161ov",
    "zip": "256 01",
    "type": "wc"
  },
  {
    "id": 137,
    "lat": 49.779995,
    "lng": 14.68299888888889,
    "place": "\u017delezni\u010dn\u00ed stanice Bene\u0161ov",
    "street": "N\u00e1dra\u017en\u00ed 300",
    "region": "St\u0159edo\u010desk\u00fd kraj",
    "city": "Bene\u0161ov",
    "zip": "256 01",
    "type": "wc"
  },
  {
    "id": 138,
    "lat": 49.974873333333335,
    "lng": 14.100820277777778,
    "place": "\u010cerpac\u00ed stanice \u010cEPRO  - EuroOil U Veterin\u00e1rky",
    "street": "Pra\u017esk\u00e1 859",
    "region": "St\u0159edo\u010desk\u00fd kraj",
    "city": "Beroun",
    "zip": "266 01",
    "type": "wc"
  },
  {
    "id": 139,
    "lat": 49.95666694444445,
    "lng": 14.062221944444445,
    "place": "\u010cerpac\u00ed stanice OMV",
    "street": "n\u00e1jezd na D5 sm\u011br Plze\u0148",
    "region": "St\u0159edo\u010desk\u00fd kraj",
    "city": "Beroun",
    "zip": "266 01",
    "type": "wc"
  },
  {
    "id": 141,
    "lat": 49.95583305555556,
    "lng": 14.063055833333333,
    "place": "\u010cerpac\u00ed stanice OMV",
    "street": "sjezd z D5",
    "region": "St\u0159edo\u010desk\u00fd kraj",
    "city": "Beroun",
    "zip": "266 01",
    "type": "wc"
  },
  {
    "id": 142,
    "lat": 49.96588805555556,
    "lng": 14.066229722222223,
    "place": "\u010cSSZ - OSSZ Beroun",
    "street": "Okru\u017en\u00ed 511/28",
    "region": "St\u0159edo\u010desk\u00fd kraj",
    "city": "Beroun",
    "zip": "266 01",
    "type": "wc"
  },
  {
    "id": 143,
    "lat": 49.962831111111115,
    "lng": 14.078692222222221,
    "place": "Hotel Na Ostrov\u011b",
    "street": "Na Ostrov\u011b 816",
    "region": "St\u0159edo\u010desk\u00fd kraj",
    "city": "Beroun",
    "zip": "266 01",
    "type": "wc"
  },
  {
    "id": 144,
    "lat": 49.95112166666667,
    "lng": 14.042056944444445,
    "place": "Hypermarket Albert",
    "street": "Plze\u0148sk\u00e1 396",
    "region": "St\u0159edo\u010desk\u00fd kraj",
    "city": "Beroun",
    "zip": "267 01",
    "type": "wc"
  },
  {
    "id": 145,
    "lat": 49.95662388888889,
    "lng": 14.060476111111111,
    "place": "Hypermarket Kaufland",
    "street": "Obchodn\u00ed 250",
    "region": "St\u0159edo\u010desk\u00fd kraj",
    "city": "Beroun",
    "zip": "266 01",
    "type": "wc"
  },
  {
    "id": 146,
    "lat": 49.966462222222226,
    "lng": 14.068780833333333,
    "place": "Komunitn\u00ed centrum",
    "street": "Bezru\u010dova 928",
    "region": "St\u0159edo\u010desk\u00fd kraj",
    "city": "Beroun",
    "zip": "266 01",
    "type": "wc"
  },
  {
    "id": 147,
    "lat": 49.96721388888889,
    "lng": 14.070248055555556,
    "place": "M\u011bstsk\u00e1 knihovna Beroun",
    "street": "U Kas\u00e1ren 813",
    "region": "St\u0159edo\u010desk\u00fd kraj",
    "city": "Beroun",
    "zip": "266 01",
    "type": "wc"
  },
  {
    "id": 148,
    "lat": 49.96436222222223,
    "lng": 14.074913888888888,
    "place": "M\u011bstsk\u00fd \u00fa\u0159ad Beroun",
    "street": "Husovo n\u00e1m. 68",
    "region": "St\u0159edo\u010desk\u00fd kraj",
    "city": "Beroun",
    "zip": "266 01",
    "type": "wc"
  },
  {
    "id": 149,
    "lat": 49.96201916666667,
    "lng": 14.076675,
    "place": "Penzion pro seniory",
    "street": "Na Park\u00e1n\u011b 111",
    "region": "St\u0159edo\u010desk\u00fd kraj",
    "city": "Beroun",
    "zip": "266 01",
    "type": "wc"
  },
  {
    "id": 150,
    "lat": 49.965806944444445,
    "lng": 14.066601666666667,
    "place": "\u00da\u0159ad pr\u00e1ce \u010cR Beroun",
    "street": "Okru\u017en\u00ed 26",
    "region": "St\u0159edo\u010desk\u00fd kraj",
    "city": "Beroun",
    "zip": "266 01",
    "type": "wc"
  },
  {
    "id": 151,
    "lat": 49.96477388888889,
    "lng": 14.069393055555555,
    "place": "\u00da\u0159ad pr\u00e1ce \u010cR Beroun",
    "street": "Pod Kaplankou 21",
    "region": "St\u0159edo\u010desk\u00fd kraj",
    "city": "Beroun",
    "zip": "266 01",
    "type": "wc"
  },
  {
    "id": 152,
    "lat": 49.96482777777778,
    "lng": 14.075138055555556,
    "place": "Ve\u0159ejn\u00e9 WC Kon\u00edrna",
    "street": "Na p\u0159\u00edkop\u011b 55",
    "region": "St\u0159edo\u010desk\u00fd kraj",
    "city": "Beroun",
    "zip": "266 01",
    "type": "wc"
  },
  {
    "id": 153,
    "lat": 49.96624527777778,
    "lng": 14.071304166666666,
    "place": "Z\u0160 (3. Z\u0160) Beroun",
    "street": "W\u00e1gnerovo n\u00e1m\u011bst\u00ed 458/7",
    "region": "St\u0159edo\u010desk\u00fd kraj",
    "city": "Beroun",
    "zip": "266 01",
    "type": "wc"
  },
  {
    "id": 154,
    "lat": 49.95758361111111,
    "lng": 14.076235,
    "place": "\u017delezni\u010dn\u00ed stanice Beroun",
    "street": "U N\u00e1dra\u017e\u00ed 129",
    "region": "St\u0159edo\u010desk\u00fd kraj",
    "city": "Beroun",
    "zip": "266 01",
    "type": "wc"
  },
  {
    "id": 155,
    "lat": 50.19087805555555,
    "lng": 14.646693888888889,
    "place": "\u010cerpac\u00ed stanice Benzina",
    "street": "Kosteleck\u00e1",
    "region": "St\u0159edo\u010desk\u00fd kraj",
    "city": "Brand\u00fds nad Labem",
    "zip": "250 01",
    "type": "wc"
  },
  {
    "id": 156,
    "lat": 50.173990277777776,
    "lng": 14.648740833333333,
    "place": "\u010cerpac\u00ed stanice PAP OIL",
    "street": "Pra\u017esk\u00e1 ul.",
    "region": "St\u0159edo\u010desk\u00fd kraj",
    "city": "Brand\u00fds nad Labem",
    "zip": "250 01",
    "type": "wc"
  },
  {
    "id": 157,
    "lat": 50.17829194444444,
    "lng": 14.66871861111111,
    "place": "Hypermarket Kaufland",
    "street": "Z\u00e1psk\u00e1 2600",
    "region": "St\u0159edo\u010desk\u00fd kraj",
    "city": "Brand\u00fds nad Labem",
    "zip": "250 01",
    "type": "wc"
  },
  {
    "id": 158,
    "lat": 50.19605583333333,
    "lng": 14.675377222222222,
    "place": "M\u011bstsk\u00fd \u00fa\u0159ad Brand\u00fds nad Labem - Star\u00e1 Boleslav",
    "street": "Mari\u00e1nsk\u00e9 n\u00e1m. 28",
    "region": "St\u0159edo\u010desk\u00fd kraj",
    "city": "Brand\u00fds nad Labem - Star\u00e1 Boleslav",
    "zip": "250 02",
    "type": "wc"
  },
  {
    "id": 159,
    "lat": 50.18612916666666,
    "lng": 14.658605,
    "place": "M\u011bstsk\u00fd \u00fa\u0159ad Brand\u00fds nad Labem",
    "street": "Masarykovo n\u00e1m. 90",
    "region": "St\u0159edo\u010desk\u00fd kraj",
    "city": "Brand\u00fds nad Labem",
    "zip": "250 01",
    "type": "wc"
  },
  {
    "id": 160,
    "lat": 50.187593888888884,
    "lng": 14.66624388888889,
    "place": "Z\u00e1mek Brand\u00fds nad Labem",
    "street": "Plant\u00e1\u017e 8/402",
    "region": "St\u0159edo\u010desk\u00fd kraj",
    "city": "Brand\u00fds nad Labem",
    "zip": "250 01",
    "type": "wc"
  },
  {
    "id": 161,
    "lat": 49.561728055555555,
    "lng": 13.94676,
    "place": "Vy\u0161\u0161\u00ed odborn\u00e1 \u0161kola a St\u0159edn\u00ed odborn\u00e1 \u0161kola",
    "street": "Ro\u017emit\u00e1lsk\u00e1 340",
    "region": "St\u0159edo\u010desk\u00fd kraj",
    "city": "B\u0159eznice",
    "zip": "262 72",
    "type": "wc"
  },
  {
    "id": 162,
    "lat": 49.90267222222222,
    "lng": 15.403521111111111,
    "place": "Hypermarket Kaufland",
    "street": "Jen\u00edkovsk\u00e1 1983",
    "region": "St\u0159edo\u010desk\u00fd kraj",
    "city": "\u010c\u00e1slav",
    "zip": "286 01",
    "type": "wc"
  },
  {
    "id": 163,
    "lat": 49.910242499999995,
    "lng": 15.390548333333333,
    "place": "\u00da\u0159ad pr\u00e1ce \u010cR \u010c\u00e1slav",
    "street": "n\u00e1m. J. \u017di\u017eky z Trocnova 168",
    "region": "St\u0159edo\u010desk\u00fd kraj",
    "city": "\u010c\u00e1slav",
    "zip": "286 01",
    "type": "wc"
  },
  {
    "id": 164,
    "lat": 50.1580575,
    "lng": 14.753986666666666,
    "place": "\u017delezni\u010dn\u00ed stanice \u010cel\u00e1kovice",
    "street": "Masarykova 53",
    "region": "St\u0159edo\u010desk\u00fd kraj",
    "city": "\u010cel\u00e1kovice",
    "zip": "250 88",
    "type": "wc"
  },
  {
    "id": 165,
    "lat": 49.851345555555554,
    "lng": 14.702233333333332,
    "place": "\u017delezni\u010dn\u00ed stanice \u010cer\u010dany",
    "street": "N\u00e1dra\u017en\u00ed 26",
    "region": "St\u0159edo\u010desk\u00fd kraj",
    "city": "\u010cer\u010dany",
    "zip": "257 22",
    "type": "wc"
  },
  {
    "id": 166,
    "lat": 50.072835833333336,
    "lng": 14.850903888888888,
    "place": "Are\u00e1l nemocnice \u010cesk\u00fd Brod, Pavilon E",
    "street": "\u017di\u017ekova 1311",
    "region": "St\u0159edo\u010desk\u00fd kraj",
    "city": "\u010cesk\u00fd Brod",
    "zip": "282 01",
    "type": "wc"
  },
  {
    "id": 167,
    "lat": 50.072835833333336,
    "lng": 14.850903888888888,
    "place": "Are\u00e1l nemocnice \u010cesk\u00fd Brod, Pavilon F",
    "street": "\u017di\u017ekova 1311",
    "region": "St\u0159edo\u010desk\u00fd kraj",
    "city": "\u010cesk\u00fd Brod",
    "zip": "282 01",
    "type": "wc"
  },
  {
    "id": 168,
    "lat": 50.06843916666667,
    "lng": 14.849674722222224,
    "place": "\u010cerpac\u00ed stanice PAP OIL",
    "street": "Palack\u00e9ho",
    "region": "St\u0159edo\u010desk\u00fd kraj",
    "city": "\u010cesk\u00fd Brod",
    "zip": "282 01",
    "type": "wc"
  },
  {
    "id": 169,
    "lat": 50.07515638888889,
    "lng": 14.863602499999999,
    "place": "Obchodn\u00ed centrum Pila",
    "street": "Jana Kouly 1528",
    "region": "St\u0159edo\u010desk\u00fd kraj",
    "city": "\u010cesk\u00fd Brod",
    "zip": "282 01",
    "type": "wc"
  },
  {
    "id": 170,
    "lat": 50.07400500000001,
    "lng": 14.853731111111111,
    "place": "Z\u0160 \u010cesk\u00fd Brod",
    "street": "\u017ditom\u00ed\u0159sk\u00e1 1359",
    "region": "St\u0159edo\u010desk\u00fd kraj",
    "city": "\u010cesk\u00fd Brod",
    "zip": "282 01",
    "type": "wc"
  },
  {
    "id": 172,
    "lat": 50.141822222222224,
    "lng": 14.116624999999999,
    "place": "\u010cerpac\u00ed stanice PAP OIL",
    "street": "Pra\u017esk\u00e1",
    "region": "St\u0159edo\u010desk\u00fd kraj",
    "city": "Dob\u0159\u00ed\u0161",
    "zip": "263 01",
    "type": "wc"
  },
  {
    "id": 173,
    "lat": 49.79767138888889,
    "lng": 14.195569722222222,
    "place": "\u010cerpac\u00ed stanice Shell Dob\u0159\u00ed\u0161",
    "street": "Kodetka 1601",
    "region": "St\u0159edo\u010desk\u00fd kraj",
    "city": "Dob\u0159\u00ed\u0161",
    "zip": "263 01",
    "type": "wc"
  },
  {
    "id": 174,
    "lat": 49.792180555555554,
    "lng": 14.181818055555555,
    "place": "\u00da\u0159ad pr\u00e1ce \u010cR Dob\u0159\u00ed\u0161",
    "street": "Na Zlat\u00e9 stezce 1075",
    "region": "St\u0159edo\u010desk\u00fd kraj",
    "city": "Dob\u0159\u00ed\u0161",
    "zip": "263 01",
    "type": "wc"
  },
  {
    "id": 175,
    "lat": 50.12119388888889,
    "lng": 15.281478055555556,
    "place": "\u010cerpac\u00ed stanice Shell Dob\u0161ice",
    "street": "",
    "region": "St\u0159edo\u010desk\u00fd kraj",
    "city": "Dob\u0161ice",
    "zip": "289 05",
    "type": "wc"
  },
  {
    "id": 176,
    "lat": 49.964553888888894,
    "lng": 14.461134999999999,
    "place": "Z\u00e1kladn\u00ed \u0161kola a Mate\u0159sk\u00e1 \u0161kola",
    "street": "Na Vr\u0161ku 290",
    "region": "St\u0159edo\u010desk\u00fd kraj",
    "city": "Doln\u00ed B\u0159e\u017eany",
    "zip": "252 41",
    "type": "platform"
  },
  {
    "id": 177,
    "lat": 49.983475,
    "lng": 15.294367777777778,
    "place": "Pivovarsk\u00e1 kav\u00e1rna Holan\u010fan",
    "street": "Hl\u00edzov 230",
    "region": "St\u0159edo\u010desk\u00fd kraj",
    "city": "Hl\u00edzov",
    "zip": "285 32",
    "type": "wc"
  },
  {
    "id": 178,
    "lat": 49.843182222222225,
    "lng": 13.899360277777777,
    "place": "\u017delezni\u010dn\u00ed stanice Ho\u0159ovice",
    "street": "U N\u00e1dra\u017e\u00ed 1609/3a",
    "region": "St\u0159edo\u010desk\u00fd kraj",
    "city": "Ho\u0159ovice",
    "zip": "268 01",
    "type": "wc"
  },
  {
    "id": 179,
    "lat": 49.90423305555555,
    "lng": 14.58786138888889,
    "place": "Kulturn\u00ed a turistick\u00e9 informa\u010dn\u00ed centrum Kamenice, Ringhofferovo n\u00e1m\u011bst\u00ed 434",
    "street": "Ole\u0161ovice",
    "region": "St\u0159edo\u010desk\u00fd kraj",
    "city": "Kamenice",
    "zip": "251 68",
    "type": "wc"
  },
  {
    "id": 180,
    "lat": 50.13189694444444,
    "lng": 14.11183638888889,
    "place": "\u010cerpac\u00ed stanice MOL",
    "street": "Americk\u00e1 ul.",
    "region": "St\u0159edo\u010desk\u00fd kraj",
    "city": "Kladno",
    "zip": "272 01",
    "type": "wc"
  },
  {
    "id": 182,
    "lat": 50.14343083333333,
    "lng": 14.112677777777778,
    "place": "\u010cerpac\u00ed stanice PAP OIL",
    "street": "Kro\u010dehlavsk\u00e1 2744",
    "region": "St\u0159edo\u010desk\u00fd kraj",
    "city": "Kladno",
    "zip": "272 01",
    "type": "wc"
  },
  {
    "id": 183,
    "lat": 50.14158388888889,
    "lng": 14.096799166666667,
    "place": "\u010cSSZ - OSSZ Kladno",
    "street": "Fibichova 2819",
    "region": "St\u0159edo\u010desk\u00fd kraj",
    "city": "Kladno",
    "zip": "272 01",
    "type": "wc"
  },
  {
    "id": 184,
    "lat": 50.13115111111111,
    "lng": 14.116636111111111,
    "place": "Hypermarket Kaufland",
    "street": "Italsk\u00e1 50",
    "region": "St\u0159edo\u010desk\u00fd kraj",
    "city": "Kladno",
    "zip": "272 01",
    "type": "wc"
  },
  {
    "id": 185,
    "lat": 50.126180833333336,
    "lng": 14.118956666666667,
    "place": "Hypermarket Tesco",
    "street": "Americk\u00e1 2777",
    "region": "St\u0159edo\u010desk\u00fd kraj",
    "city": "Kladno",
    "zip": "272 01",
    "type": "wc"
  },
  {
    "id": 186,
    "lat": 50.13570388888889,
    "lng": 14.103864722222221,
    "place": "Knihovna",
    "street": "N\u00e1m. S\u00edtn\u00e1",
    "region": "St\u0159edo\u010desk\u00fd kraj",
    "city": "Kladno",
    "zip": "272 01",
    "type": "wc"
  },
  {
    "id": 187,
    "lat": 50.14975277777778,
    "lng": 14.110326944444443,
    "place": "Sl\u00e1de\u010dkovo vlastiv\u011bdn\u00e9 muzeum",
    "street": "Z\u00e1du\u0161n\u00ed 1841",
    "region": "St\u0159edo\u010desk\u00fd kraj",
    "city": "Kladno",
    "zip": "272 01",
    "type": "wc"
  },
  {
    "id": 188,
    "lat": 50.14500694444445,
    "lng": 14.108283055555555,
    "place": "St\u0159edo\u010desk\u00e1 v\u011bdeck\u00e1 knihovna",
    "street": "Gen. Klap\u00e1lka 1641",
    "region": "St\u0159edo\u010desk\u00fd kraj",
    "city": "Kladno",
    "zip": "272 01",
    "type": "wc"
  },
  {
    "id": 189,
    "lat": 50.13901111111111,
    "lng": 14.072373888888889,
    "place": "Z\u00e1kladn\u00ed um\u011bleck\u00e1 \u0161kola Kladno",
    "street": "Moskevsk\u00e1 2929",
    "region": "St\u0159edo\u010desk\u00fd kraj",
    "city": "Kladno",
    "zip": "272 04",
    "type": "wc"
  },
  {
    "id": 190,
    "lat": 50.14319388888889,
    "lng": 14.091301944444446,
    "place": "Zdravotn\u00ed poji\u0161\u0165ovna Metal-Aliance",
    "street": "\u010cerm\u00e1kova 1951",
    "region": "St\u0159edo\u010desk\u00fd kraj",
    "city": "Kladno",
    "zip": "272 01",
    "type": "wc"
  },
  {
    "id": 191,
    "lat": 50.13675611111111,
    "lng": 14.134523888888888,
    "place": "Z\u0160 a Praktick\u00e1 \u0161kola Kladno",
    "street": "Pa\u0159\u00ed\u017esk\u00e1 2199",
    "region": "St\u0159edo\u010desk\u00fd kraj",
    "city": "Kladno",
    "zip": "272 01",
    "type": "wc"
  },
  {
    "id": 192,
    "lat": 50.12811694444444,
    "lng": 14.113765277777777,
    "place": "\u017delezni\u010dn\u00ed stanice Kladno",
    "street": "Milady Hor\u00e1kov\u00e9 251",
    "region": "St\u0159edo\u010desk\u00fd kraj",
    "city": "Kladno",
    "zip": "272 01",
    "type": "wc"
  },
  {
    "id": 193,
    "lat": 50.02189805555555,
    "lng": 15.194242222222222,
    "place": "Are\u00e1l Vodn\u00ed Sv\u011bt Kol\u00edn",
    "street": "Masarakova 1041",
    "region": "St\u0159edo\u010desk\u00fd kraj",
    "city": "Kol\u00edn",
    "zip": "280 02",
    "type": "wc"
  },
  {
    "id": 194,
    "lat": 50.02244111111111,
    "lng": 15.184186944444445,
    "place": "\u010cerpac\u00ed stanice Benzina",
    "street": "Bene\u0161ova ul.",
    "region": "St\u0159edo\u010desk\u00fd kraj",
    "city": "Kol\u00edn",
    "zip": "280 02",
    "type": "wc"
  },
  {
    "id": 195,
    "lat": 50.04360722222222,
    "lng": 15.076186944444444,
    "place": "\u010cerpac\u00ed stanice \u010cEPRO - EuroOil, B\u0159e\u017eany I 52",
    "street": "Nov\u00e9 M\u011bsto",
    "region": "St\u0159edo\u010desk\u00fd kraj",
    "city": "Kol\u00edn",
    "zip": "280 02",
    "type": "wc"
  },
  {
    "id": 196,
    "lat": 50.04045138888889,
    "lng": 15.212905555555555,
    "place": "\u010cerpac\u00ed stanice OMV",
    "street": "Ov\u010d\u00e1reck\u00e1",
    "region": "St\u0159edo\u010desk\u00fd kraj",
    "city": "Kol\u00edn",
    "zip": "280 00",
    "type": "wc"
  },
  {
    "id": 197,
    "lat": 50.03257611111111,
    "lng": 15.17906,
    "place": "\u010cerpac\u00ed stanice OMV",
    "street": "Pra\u017esk\u00e1 ul.",
    "region": "St\u0159edo\u010desk\u00fd kraj",
    "city": "Kol\u00edn",
    "zip": "280 02",
    "type": "wc"
  },
  {
    "id": 198,
    "lat": 50.02478083333333,
    "lng": 15.19866888888889,
    "place": "\u010cSSZ - OSSZ Kol\u00edn",
    "street": "Obecn\u00ed dv\u016fr 6",
    "region": "St\u0159edo\u010desk\u00fd kraj",
    "city": "Kol\u00edn",
    "zip": "280 02",
    "type": "wc"
  },
  {
    "id": 199,
    "lat": 50.03332888888889,
    "lng": 15.187983055555556,
    "place": "Hobby market OBI Kol\u00edn",
    "street": "V Kas\u00e1rn\u00e1ch 1022",
    "region": "St\u0159edo\u010desk\u00fd kraj",
    "city": "Kol\u00edn",
    "zip": "280 02",
    "type": "wc"
  },
  {
    "id": 200,
    "lat": 50.021535,
    "lng": 15.185168333333333,
    "place": "Hypermarket Kaufland",
    "street": "Bene\u0161ova 1000",
    "region": "St\u0159edo\u010desk\u00fd kraj",
    "city": "Kol\u00edn",
    "zip": "280 02",
    "type": "wc"
  },
  {
    "id": 201,
    "lat": 50.03233611111111,
    "lng": 15.190649444444444,
    "place": "Hypermarket Tesco",
    "street": "V Kas\u00e1rn\u00e1ch 1019",
    "region": "St\u0159edo\u010desk\u00fd kraj",
    "city": "Kol\u00edn",
    "zip": "280 02",
    "type": "wc"
  },
  {
    "id": 202,
    "lat": 50.02878777777778,
    "lng": 15.200889166666666,
    "place": "M\u011bstsk\u00fd spole\u010densk\u00fd d\u016fm",
    "street": "Z\u00e1meck\u00e1 109",
    "region": "St\u0159edo\u010desk\u00fd kraj",
    "city": "Kol\u00edn",
    "zip": "280 02",
    "type": "wc"
  },
  {
    "id": 203,
    "lat": 50.02690805555555,
    "lng": 15.204810833333333,
    "place": "Obchodn\u00ed akademie",
    "street": "Kutnohorsk\u00e1 41",
    "region": "St\u0159edo\u010desk\u00fd kraj",
    "city": "Kol\u00edn",
    "zip": "280 02",
    "type": "wc"
  },
  {
    "id": 205,
    "lat": 50.02697083333333,
    "lng": 15.20181,
    "place": "Region\u00e1ln\u00ed muzeum v Kol\u00edn\u011b",
    "street": "Brandova 35",
    "region": "St\u0159edo\u010desk\u00fd kraj",
    "city": "Kol\u00edn",
    "zip": "280 02",
    "type": "wc"
  },
  {
    "id": 206,
    "lat": 50.02450916666667,
    "lng": 15.206293055555555,
    "place": "St\u0159edn\u00ed pr\u016fmyslov\u00e1 \u0161kola stroj\u00edrensk\u00e1 a Jazykov\u00e1 \u0161kola",
    "street": "Heverova 191",
    "region": "St\u0159edo\u010desk\u00fd kraj",
    "city": "Kol\u00edn",
    "zip": "280 02",
    "type": "wc"
  },
  {
    "id": 207,
    "lat": 50.03760166666667,
    "lng": 15.208388611111111,
    "place": "Ve\u0159ejn\u00e9 WC na kol\u00ednsk\u00e9m centr\u00e1ln\u00edm h\u0159bitov\u011b",
    "street": "Ke H\u0159bitovu 1540",
    "region": "St\u0159edo\u010desk\u00fd kraj",
    "city": "Kol\u00edn",
    "zip": "280 02",
    "type": "wc"
  },
  {
    "id": 208,
    "lat": 50.02189805555555,
    "lng": 15.194242222222222,
    "place": "Zimn\u00ed stadion Kol\u00edn - spr\u00e1va m\u011bstsk\u00fdch sportovi\u0161t\u00b4",
    "street": "Masarykova ul.",
    "region": "St\u0159edo\u010desk\u00fd kraj",
    "city": "Kol\u00edn",
    "zip": "280 02",
    "type": "wc"
  },
  {
    "id": 209,
    "lat": 50.02205611111111,
    "lng": 15.201894166666666,
    "place": "Z\u0160 Kol\u00edn",
    "street": "Lipansk\u00e1 420",
    "region": "St\u0159edo\u010desk\u00fd kraj",
    "city": "Kol\u00edn",
    "zip": "280 02",
    "type": "wc"
  },
  {
    "id": 210,
    "lat": 50.02527111111111,
    "lng": 15.214176944444445,
    "place": "\u017delezni\u010dn\u00ed stanice Kol\u00edn",
    "street": "Rorejcova 569",
    "region": "St\u0159edo\u010desk\u00fd kraj",
    "city": "Kol\u00edn",
    "zip": "282 02",
    "type": "wc"
  },
  {
    "id": 211,
    "lat": 49.99480972222222,
    "lng": 14.972403055555557,
    "place": "Muzeum lidov\u00fdch staveb v Kou\u0159imi",
    "street": "Rusk\u00e1 ulice",
    "region": "St\u0159edo\u010desk\u00fd kraj",
    "city": "Kou\u0159im",
    "zip": "281 61",
    "type": "wc"
  },
  {
    "id": 213,
    "lat": 50.25301388888889,
    "lng": 14.31804611111111,
    "place": "Hypermarket Tesco",
    "street": "Veltrusk\u00e1 815",
    "region": "St\u0159edo\u010desk\u00fd kraj",
    "city": "Kralupy nad Vltavou",
    "zip": "278 01",
    "type": "wc"
  },
  {
    "id": 214,
    "lat": 50.24109555555555,
    "lng": 14.311496388888889,
    "place": "\u00da\u0159ad pr\u00e1ce \u010cR Kralupy nad Vltavou",
    "street": "Palack\u00e9ho n\u00e1m\u011bst\u00ed 6",
    "region": "St\u0159edo\u010desk\u00fd kraj",
    "city": "Kralupy nad Vltavou",
    "zip": "278 01",
    "type": "wc"
  },
  {
    "id": 215,
    "lat": 49.96382388888889,
    "lng": 14.071996944444445,
    "place": "Hobby market OBI Beroun",
    "street": "Plze\u0148sk\u00e1 475",
    "region": "St\u0159edo\u010desk\u00fd kraj",
    "city": "Kr\u00e1l\u016fv Dv\u016fr",
    "zip": "267 01",
    "type": "wc"
  },
  {
    "id": 216,
    "lat": 50.038245833333335,
    "lng": 13.869021944444444,
    "place": "\u017delezni\u010dn\u00ed stanice K\u0159ivokl\u00e1t",
    "street": "K\u0159ivokl\u00e1t 235",
    "region": "St\u0159edo\u010desk\u00fd kraj",
    "city": "K\u0159ivokl\u00e1t",
    "zip": "270 23",
    "type": "wc"
  },
  {
    "id": 217,
    "lat": 49.95510305555556,
    "lng": 15.270938888888889,
    "place": "\u010cSSZ - OSSZ Kutn\u00e1 Hora",
    "street": "Loreck\u00e1 667",
    "region": "St\u0159edo\u010desk\u00fd kraj",
    "city": "Kutn\u00e1 Hora",
    "zip": "284 01",
    "type": "wc"
  },
  {
    "id": 218,
    "lat": 49.943126944444444,
    "lng": 15.258196944444444,
    "place": "Gymn\u00e1zium Ji\u0159\u00edho Ortena (WC 2. patro)",
    "street": "Jaselsk\u00e1 932",
    "region": "St\u0159edo\u010desk\u00fd kraj",
    "city": "Kutn\u00e1 Hora",
    "zip": "284 01",
    "type": "wc"
  },
  {
    "id": 219,
    "lat": 49.96082888888889,
    "lng": 15.28354,
    "place": "Hypermarket Kaufland",
    "street": "Ortenova 188",
    "region": "St\u0159edo\u010desk\u00fd kraj",
    "city": "Kutn\u00e1 Hora",
    "zip": "284 01",
    "type": "wc"
  },
  {
    "id": 220,
    "lat": 49.94608583333333,
    "lng": 15.252913611111111,
    "place": "Poliklinika nemocnice Kutn\u00e1 Hora",
    "street": "Kou\u0159imsk\u00e1 915",
    "region": "St\u0159edo\u010desk\u00fd kraj",
    "city": "Kutn\u00e1 Hora",
    "zip": "284 01",
    "type": "wc"
  },
  {
    "id": 221,
    "lat": 49.98195333333334,
    "lng": 15.345870555555557,
    "place": "Z\u00e1mek Ka\u010dina \u2013 muzeum \u010desk\u00e9ho venkova",
    "street": "Svat\u00fd Mikul\u00e1\u0161 51",
    "region": "St\u0159edo\u010desk\u00fd kraj",
    "city": "Kutn\u00e1 Hora",
    "zip": "284 01",
    "type": "wc"
  },
  {
    "id": 222,
    "lat": 49.95030583333334,
    "lng": 15.271990277777778,
    "place": "Z\u0160 a Praktick\u00e1 \u0161kola Kutn\u00e1 Hora",
    "street": "Na N\u00e1m\u011bst\u00ed 417",
    "region": "St\u0159edo\u010desk\u00fd kraj",
    "city": "Kutn\u00e1 Hora",
    "zip": "284 01",
    "type": "wc"
  },
  {
    "id": 223,
    "lat": 50.55916416666666,
    "lng": 15.013916111111111,
    "place": "St\u0159edn\u00ed odborn\u00e9 u\u010dili\u0161t\u011b",
    "street": "Hub\u00e1lov 17",
    "region": "St\u0159edo\u010desk\u00fd kraj",
    "city": "Loukov",
    "zip": "294 11",
    "type": "wc"
  },
  {
    "id": 224,
    "lat": 50.19585305555555,
    "lng": 14.842085277777779,
    "place": "\u017delezni\u010dn\u00ed stanice Lys\u00e1 nad Labem",
    "street": "\u010capkova 508/1",
    "region": "St\u0159edo\u010desk\u00fd kraj",
    "city": "Lys\u00e1 nad Labem",
    "zip": "289 22",
    "type": "wc"
  },
  {
    "id": 225,
    "lat": 50.356495,
    "lng": 14.48587611111111,
    "place": "\u010cerpac\u00ed stanice Benzina",
    "street": "N\u00e1dra\u017en\u00ed",
    "region": "St\u0159edo\u010desk\u00fd kraj",
    "city": "M\u011bln\u00edk",
    "zip": "276 01",
    "type": "wc"
  },
  {
    "id": 226,
    "lat": 50.35314416666667,
    "lng": 14.479225,
    "place": "Gymn\u00e1zium Jana Palacha",
    "street": "Pod vrchem 3421",
    "region": "St\u0159edo\u010desk\u00fd kraj",
    "city": "M\u011bln\u00edk",
    "zip": "276 01",
    "type": "wc"
  },
  {
    "id": 227,
    "lat": 50.35821527777778,
    "lng": 14.47482,
    "place": "Hypermarket Kaufland",
    "street": "Kl\u00e1\u0161tern\u00ed 3630",
    "region": "St\u0159edo\u010desk\u00fd kraj",
    "city": "M\u011bln\u00edk",
    "zip": "276 01",
    "type": "wc"
  },
  {
    "id": 228,
    "lat": 50.354866111111114,
    "lng": 14.483694166666666,
    "place": "Hypermarket Tesco",
    "street": "Vod\u00e1rensk\u00e1 3653",
    "region": "St\u0159edo\u010desk\u00fd kraj",
    "city": "M\u011bln\u00edk",
    "zip": "276 01",
    "type": "wc"
  },
  {
    "id": 229,
    "lat": 50.35241194444445,
    "lng": 14.474945,
    "place": "M\u011bstsk\u00fd \u00fa\u0159ad M\u011bln\u00edk",
    "street": "N\u00e1m. M\u00edru 1",
    "region": "St\u0159edo\u010desk\u00fd kraj",
    "city": "M\u011bln\u00edk",
    "zip": "276 01",
    "type": "wc"
  },
  {
    "id": 230,
    "lat": 50.352715,
    "lng": 14.474569166666667,
    "place": "Region\u00e1ln\u00ed muzeum M\u011bln\u00edk",
    "street": "N\u00e1m. M\u00edru 54",
    "region": "St\u0159edo\u010desk\u00fd kraj",
    "city": "M\u011bln\u00edk",
    "zip": "276 01",
    "type": "wc"
  },
  {
    "id": 231,
    "lat": 50.35288333333334,
    "lng": 14.476965833333333,
    "place": "\u00da\u0159ad pr\u00e1ce \u010cR M\u011bln\u00edk",
    "street": "Nov\u00e1 2571/1",
    "region": "St\u0159edo\u010desk\u00fd kraj",
    "city": "M\u011bln\u00edk",
    "zip": "276 01",
    "type": "wc"
  },
  {
    "id": 233,
    "lat": 50.35302472222222,
    "lng": 14.492375277777777,
    "place": "\u017delezni\u010dn\u00ed stanice M\u011bln\u00edk",
    "street": "N\u00e1dra\u017en\u00ed 2004/2",
    "region": "St\u0159edo\u010desk\u00fd kraj",
    "city": "M\u011bln\u00edk",
    "zip": "276 01",
    "type": "wc"
  },
  {
    "id": 234,
    "lat": 50.223306111111114,
    "lng": 14.877472222222222,
    "place": "\u010cerpac\u00ed stanice PAP OIL",
    "street": "M\u00edrov\u00e1 475",
    "region": "St\u0159edo\u010desk\u00fd kraj",
    "city": "Milovice",
    "zip": "289 24",
    "type": "wc"
  },
  {
    "id": 235,
    "lat": 50.22903194444444,
    "lng": 14.882004444444444,
    "place": "\u017delezni\u010dn\u00ed stanice Milovice",
    "street": "N\u00e1dra\u017en\u00ed 469/13",
    "region": "St\u0159edo\u010desk\u00fd kraj",
    "city": "Milovice",
    "zip": "289 24",
    "type": "wc"
  },
  {
    "id": 236,
    "lat": 49.910335277777776,
    "lng": 14.720288611111112,
    "place": "\u017delezni\u010dn\u00ed stanice Miro\u0161ovice u Prahy",
    "street": "Hrusick\u00e1 33",
    "region": "St\u0159edo\u010desk\u00fd kraj",
    "city": "Miro\u0161ovice u Prahy",
    "zip": "251 66",
    "type": "wc"
  },
  {
    "id": 237,
    "lat": 50.405569166666666,
    "lng": 14.93129972222222,
    "place": "\u010cerpac\u00ed stanice Benzina",
    "street": "obchvat lev\u00e1 strana",
    "region": "St\u0159edo\u010desk\u00fd kraj",
    "city": "Mlad\u00e1 Boleslav",
    "zip": "293 01",
    "type": "wc"
  },
  {
    "id": 238,
    "lat": 50.40551416666666,
    "lng": 14.932383055555555,
    "place": "\u010cerpac\u00ed stanice Benzina",
    "street": "obchvat prav\u00e1 strana",
    "region": "St\u0159edo\u010desk\u00fd kraj",
    "city": "Mlad\u00e1 Boleslav",
    "zip": "293 01",
    "type": "wc"
  },
  {
    "id": 239,
    "lat": 50.400686111111106,
    "lng": 14.903738888888888,
    "place": "\u010cerpac\u00ed stanice \u010cEPRO - EuroOil",
    "street": "Pra\u017esk\u00e1 1366",
    "region": "St\u0159edo\u010desk\u00fd kraj",
    "city": "Mlad\u00e1 Boleslav",
    "zip": "293 01",
    "type": "wc"
  },
  {
    "id": 240,
    "lat": 50.43416694444444,
    "lng": 14.917778055555555,
    "place": "\u010cerpac\u00ed stanice OMV",
    "street": "Havl\u00ed\u010dkova ul.",
    "region": "St\u0159edo\u010desk\u00fd kraj",
    "city": "Mlad\u00e1 Boleslav",
    "zip": "293 01",
    "type": "wc"
  },
  {
    "id": 241,
    "lat": 50.40972194444444,
    "lng": 14.930832777777777,
    "place": "\u010cerpac\u00ed stanice OMV",
    "street": "Ji\u010d\u00ednsk\u00e1 ul. jih",
    "region": "St\u0159edo\u010desk\u00fd kraj",
    "city": "Mlad\u00e1 Boleslav",
    "zip": "293 01",
    "type": "wc"
  },
  {
    "id": 242,
    "lat": 50.410828055555555,
    "lng": 14.935330833333333,
    "place": "\u010cerpac\u00ed stanice OMV",
    "street": "Ji\u010d\u00ednsk\u00e1 ul. sever",
    "region": "St\u0159edo\u010desk\u00fd kraj",
    "city": "Mlad\u00e1 Boleslav",
    "zip": "293 01",
    "type": "wc"
  },
  {
    "id": 243,
    "lat": 50.415976944444445,
    "lng": 14.903687222222223,
    "place": "\u010cSSZ - OSSZ Mlad\u00e1 Boleslav",
    "street": "Jaselsk\u00e1 292",
    "region": "St\u0159edo\u010desk\u00fd kraj",
    "city": "Mlad\u00e1 Boleslav",
    "zip": "293 01",
    "type": "wc"
  },
  {
    "id": 244,
    "lat": 50.41609694444444,
    "lng": 14.906394166666667,
    "place": "Gymn\u00e1zium Dr. Josefa Peka\u0159e",
    "street": "Palack\u00e9ho 211",
    "region": "St\u0159edo\u010desk\u00fd kraj",
    "city": "Mlad\u00e1 Boleslav",
    "zip": "293 01",
    "type": "wc"
  },
  {
    "id": 245,
    "lat": 50.41027111111111,
    "lng": 14.933528055555556,
    "place": "Hobby market Baumax Mlad\u00e1 Boleslav",
    "street": "Ji\u010d\u00ednsk\u00e1 1326",
    "region": "St\u0159edo\u010desk\u00fd kraj",
    "city": "Mlad\u00e1 Boleslav",
    "zip": "293 01",
    "type": "wc"
  },
  {
    "id": 246,
    "lat": 50.43688083333333,
    "lng": 14.908047777777778,
    "place": "Hobby market OBI Mlad\u00e1 Boleslav",
    "street": "ul. Na Radou\u010di 1236",
    "region": "St\u0159edo\u010desk\u00fd kraj",
    "city": "Mlad\u00e1 Boleslav",
    "zip": "293 01",
    "type": "wc"
  },
  {
    "id": 247,
    "lat": 50.42495694444444,
    "lng": 14.911919166666667,
    "place": "Hypermarket Kaufland",
    "street": "U stadionu 1276",
    "region": "St\u0159edo\u010desk\u00fd kraj",
    "city": "Mlad\u00e1 Boleslav",
    "zip": "293 01",
    "type": "wc"
  },
  {
    "id": 248,
    "lat": 50.4192,
    "lng": 14.900121111111112,
    "place": "Interdog Bohemia - kynologick\u00fd spolek",
    "street": "Lu\u010dn\u00ed 286",
    "region": "St\u0159edo\u010desk\u00fd kraj",
    "city": "Mlad\u00e1 Boleslav",
    "zip": "293 01",
    "type": "wc"
  },
  {
    "id": 249,
    "lat": 50.41609,
    "lng": 14.911493055555557,
    "place": "Knihovna t\u0159. V\u00e1clava Klementa 1229",
    "street": "",
    "region": "St\u0159edo\u010desk\u00fd kraj",
    "city": "Mlad\u00e1 Boleslav",
    "zip": "293 01",
    "type": "wc"
  },
  {
    "id": 250,
    "lat": 50.420285,
    "lng": 14.915485,
    "place": "Obchodn\u00ed centrum Bondy Centrum",
    "street": "T\u0159. V\u00e1clava Klementa 1459",
    "region": "St\u0159edo\u010desk\u00fd kraj",
    "city": "Mlad\u00e1 Boleslav",
    "zip": "293 01",
    "type": "wc"
  },
  {
    "id": 251,
    "lat": 50.40828194444444,
    "lng": 14.940696944444445,
    "place": "Obchodn\u00ed centrum Olympia Mlad\u00e1 Boleslav",
    "street": "Ji\u010d\u00ednsk\u00e1 1350/III",
    "region": "St\u0159edo\u010desk\u00fd kraj",
    "city": "Mlad\u00e1 Boleslav",
    "zip": "293 01",
    "type": "wc"
  },
  {
    "id": 252,
    "lat": 50.417721944444445,
    "lng": 14.911840833333335,
    "place": "Oblastn\u00ed nemocnice Mlad\u00e1 Boleslav a.s.",
    "street": "T\u0159\u00edda V. Klementa 147",
    "region": "St\u0159edo\u010desk\u00fd kraj",
    "city": "Mlad\u00e1 Boleslav",
    "zip": "293 01",
    "type": "wc"
  },
  {
    "id": 253,
    "lat": 50.4296125,
    "lng": 14.918710277777777,
    "place": "Poliklinika Modr\u00e1 hv\u011bzda",
    "street": "Jir\u00e1skova 1320",
    "region": "St\u0159edo\u010desk\u00fd kraj",
    "city": "Mlad\u00e1 Boleslav",
    "zip": "293 01",
    "type": "wc"
  },
  {
    "id": 254,
    "lat": 50.420651111111106,
    "lng": 14.905634722222223,
    "place": "Z\u0160 speci\u00e1ln\u00ed Mlad\u00e1 Boleslav",
    "street": "V\u00e1clavkova 950",
    "region": "St\u0159edo\u010desk\u00fd kraj",
    "city": "Mlad\u00e1 Boleslav",
    "zip": "293 01",
    "type": "wc"
  },
  {
    "id": 255,
    "lat": 49.932633055555556,
    "lng": 14.707389444444443,
    "place": "\u017delezni\u010dn\u00ed zast\u00e1vka Mnichovice \u2013 provozn\u00ed budova",
    "street": "N\u00e1dra\u017en\u00ed 163",
    "region": "St\u0159edo\u010desk\u00fd kraj",
    "city": "Mnichovice",
    "zip": "251 64",
    "type": "wc"
  },
  {
    "id": 256,
    "lat": 50.51575805555556,
    "lng": 14.97225,
    "place": "\u010cerpac\u00ed stanice Benzina",
    "street": "V\u00edta Nejedl\u00e9ho",
    "region": "St\u0159edo\u010desk\u00fd kraj",
    "city": "Mnichovo Hradi\u0161t\u011b",
    "zip": "295 01",
    "type": "wc"
  },
  {
    "id": 257,
    "lat": 50.43724777777778,
    "lng": 14.632449166666667,
    "place": "Ve\u0159ejn\u00e9 WC",
    "street": "Zahradn\u00ed 11",
    "region": "St\u0159edo\u010desk\u00fd kraj",
    "city": "M\u0161eno",
    "zip": "277 35",
    "type": "wc"
  },
  {
    "id": 258,
    "lat": 50.25483305555556,
    "lng": 14.499253055555554,
    "place": "\u010cerpac\u00ed stanice PAP OIL",
    "street": "By\u0161kovick\u00e1",
    "region": "St\u0159edo\u010desk\u00fd kraj",
    "city": "Neratovice",
    "zip": "277 11",
    "type": "wc"
  },
  {
    "id": 259,
    "lat": 50.26053805555556,
    "lng": 14.517140833333334,
    "place": "D\u016fm d\u011bt\u00ed a ml\u00e1de\u017ee Neratovice",
    "street": "Ml\u00e1de\u017enick\u00e1 984",
    "region": "St\u0159edo\u010desk\u00fd kraj",
    "city": "Neratovice",
    "zip": "277 11",
    "type": "wc"
  },
  {
    "id": 260,
    "lat": 50.260401944444446,
    "lng": 14.51880388888889,
    "place": "Gymn\u00e1zium Franti\u0161ka Palack\u00e9ho",
    "street": "Masarykova 450",
    "region": "St\u0159edo\u010desk\u00fd kraj",
    "city": "Neratovice",
    "zip": "277 11",
    "type": "wc"
  },
  {
    "id": 261,
    "lat": 50.259233055555555,
    "lng": 14.516174444444445,
    "place": "Kulturn\u00ed d\u016fm",
    "street": "N\u00e1m\u011bst\u00ed republiky 400",
    "region": "St\u0159edo\u010desk\u00fd kraj",
    "city": "Neratovice",
    "zip": "277 11",
    "type": "wc"
  },
  {
    "id": 262,
    "lat": 50.259232777777775,
    "lng": 14.516174166666667,
    "place": "M\u011bstsk\u00fd \u00fa\u0159ad, Odbor spr\u00e1vn\u00edch \u010dinnost\u00ed a dopravy",
    "street": "n\u00e1m. Republiky 400",
    "region": "St\u0159edo\u010desk\u00fd kraj",
    "city": "Neratovice",
    "zip": "277 11",
    "type": "wc"
  },
  {
    "id": 263,
    "lat": 50.259145277777776,
    "lng": 14.515399166666667,
    "place": "Spole\u010densk\u00fd d\u016fm Neratovice",
    "street": "N\u00e1m\u011bst\u00ed Republiky 1399",
    "region": "St\u0159edo\u010desk\u00fd kraj",
    "city": "Neratovice",
    "zip": "277 11",
    "type": "wc"
  },
  {
    "id": 264,
    "lat": 50.26268777777778,
    "lng": 14.517605277777779,
    "place": "\u017delezni\u010dn\u00ed stanice Neratovice",
    "street": "N\u00e1dra\u017en\u00ed 43/8",
    "region": "St\u0159edo\u010desk\u00fd kraj",
    "city": "Neratovice",
    "zip": "277 11",
    "type": "wc"
  },
  {
    "id": 265,
    "lat": 49.999815,
    "lng": 14.000289166666667,
    "place": "Z\u00e1mek Ni\u017ebor - Informa\u010dn\u00ed centrum keltsk\u00e9 kultury - \u00daAPPS\u010c",
    "street": "",
    "region": "St\u0159edo\u010desk\u00fd kraj",
    "city": "Ni\u017ebor",
    "zip": "267 05",
    "type": "wc"
  },
  {
    "id": 266,
    "lat": 50.16092111111111,
    "lng": 13.905746944444445,
    "place": "\u010cerpac\u00ed stanice PAP OIL",
    "street": "Karlovarsk\u00e1 d\u00e1lnice",
    "region": "St\u0159edo\u010desk\u00fd kraj",
    "city": "Nov\u00e9 Stra\u0161ec\u00ed",
    "zip": "271 01",
    "type": "wc"
  },
  {
    "id": 267,
    "lat": 50.17716,
    "lng": 15.046573055555555,
    "place": "\u010cerpac\u00ed stanice Benzina",
    "street": "Kol\u00ednsk\u00e1",
    "region": "St\u0159edo\u010desk\u00fd kraj",
    "city": "Nymburk",
    "zip": "288 02",
    "type": "wc"
  },
  {
    "id": 268,
    "lat": 50.188455,
    "lng": 15.058975277777778,
    "place": "\u010cerpac\u00ed stanice PAP OIL",
    "street": "Pod\u011bbradsk\u00e1 ul.",
    "region": "St\u0159edo\u010desk\u00fd kraj",
    "city": "Nymburk",
    "zip": "288 02",
    "type": "wc"
  },
  {
    "id": 269,
    "lat": 50.193175,
    "lng": 15.040025,
    "place": "\u010cSSZ - OSSZ Nymburk",
    "street": "U Pr\u00e1delny 384",
    "region": "St\u0159edo\u010desk\u00fd kraj",
    "city": "Nymburk",
    "zip": "288 02",
    "type": "wc"
  },
  {
    "id": 270,
    "lat": 50.188399999999994,
    "lng": 15.053026944444445,
    "place": "Hypermarket Albert",
    "street": "Pod\u011bbradsk\u00e1 1037",
    "region": "St\u0159edo\u010desk\u00fd kraj",
    "city": "Nymburk",
    "zip": "288 02",
    "type": "wc"
  },
  {
    "id": 271,
    "lat": 50.17736472222222,
    "lng": 15.044382777777777,
    "place": "Hypermarket Kaufland",
    "street": "Kol\u00ednsk\u00e1 2507",
    "region": "St\u0159edo\u010desk\u00fd kraj",
    "city": "Nymburk",
    "zip": "288 28",
    "type": "wc"
  },
  {
    "id": 272,
    "lat": 50.21203916666667,
    "lng": 15.000349166666666,
    "place": "Kulturn\u00ed d\u016fm",
    "street": "Dvory 113",
    "region": "St\u0159edo\u010desk\u00fd kraj",
    "city": "Nymburk",
    "zip": "288 02",
    "type": "wc"
  },
  {
    "id": 273,
    "lat": 50.18615611111111,
    "lng": 15.040573055555555,
    "place": "M\u011bstsk\u00fd \u00fa\u0159ad Nymburk",
    "street": "N\u00e1m. P\u0159emyslovc\u016f 163",
    "region": "St\u0159edo\u010desk\u00fd kraj",
    "city": "Nymburk",
    "zip": "288 02",
    "type": "wc"
  },
  {
    "id": 274,
    "lat": 50.19312166666666,
    "lng": 15.045794722222222,
    "place": "\u017delezni\u010dn\u00ed stanice Nymburk",
    "street": "Petra Bezru\u010de 361/1",
    "region": "St\u0159edo\u010desk\u00fd kraj",
    "city": "Nymburk",
    "zip": "288 02",
    "type": "wc"
  },
  {
    "id": 275,
    "lat": 49.67055194444444,
    "lng": 14.626996666666667,
    "place": "\u017delezni\u010dn\u00ed stanice Olbramovice",
    "street": "Olbramovice 33",
    "region": "St\u0159edo\u010desk\u00fd kraj",
    "city": "Olbramovice",
    "zip": "259 01",
    "type": "wc"
  },
  {
    "id": 276,
    "lat": 50.14254305555556,
    "lng": 15.119190833333334,
    "place": "Knihovna Pod\u011bbrady",
    "street": "Ji\u0159\u00edho n\u00e1m. 41/1",
    "region": "St\u0159edo\u010desk\u00fd kraj",
    "city": "Pod\u011bbrady",
    "zip": "290 01",
    "type": "wc"
  },
  {
    "id": 277,
    "lat": 50.141795,
    "lng": 15.122740277777778,
    "place": "Polabsk\u00e9 muzeum",
    "street": "Palack\u00e9ho 68",
    "region": "St\u0159edo\u010desk\u00fd kraj",
    "city": "Pod\u011bbrady",
    "zip": "290 55",
    "type": "wc"
  },
  {
    "id": 278,
    "lat": 50.14799194444444,
    "lng": 15.118805,
    "place": "St\u0159edn\u00ed odborn\u00e9 u\u010dili\u0161t\u011b spole\u010dn\u00e9ho stravov\u00e1n\u00ed",
    "street": "Dr. Bene\u0161e 413/II",
    "region": "St\u0159edo\u010desk\u00fd kraj",
    "city": "Pod\u011bbrady",
    "zip": "290 01",
    "type": "wc"
  },
  {
    "id": 279,
    "lat": 50.1471075,
    "lng": 15.119905000000001,
    "place": "Ve\u0159ejn\u00e9 WC u l\u00e1ze\u0148sk\u00e9 kolon\u00e1dy",
    "street": "U Swissu",
    "region": "St\u0159edo\u010desk\u00fd kraj",
    "city": "Pod\u011bbrady",
    "zip": "290 33",
    "type": "wc"
  },
  {
    "id": 280,
    "lat": 50.14670611111111,
    "lng": 15.116577777777778,
    "place": "Z\u00e1kladn\u00ed um\u011bleck\u00e1 \u0161kola Pod\u011bbrady",
    "street": "\u0160koln\u00ed 556",
    "region": "St\u0159edo\u010desk\u00fd kraj",
    "city": "Pod\u011bbrady",
    "zip": "290 01",
    "type": "wc"
  },
  {
    "id": 281,
    "lat": 50.144039166666666,
    "lng": 15.13889611111111,
    "place": "Z\u0160 Pod\u011bbrady",
    "street": "U Ba\u017eantnice 154",
    "region": "St\u0159edo\u010desk\u00fd kraj",
    "city": "Pod\u011bbrady",
    "zip": "290 01",
    "type": "wc"
  },
  {
    "id": 282,
    "lat": 50.14938305555555,
    "lng": 15.12348,
    "place": "\u017delezni\u010dn\u00ed stanice Pod\u011bbrady",
    "street": "N\u00e1m. T.G.Masaryka 210/17",
    "region": "St\u0159edo\u010desk\u00fd kraj",
    "city": "Pod\u011bbrady",
    "zip": "290 01",
    "type": "wc"
  },
  {
    "id": 283,
    "lat": 50.11123027777778,
    "lng": 14.92239111111111,
    "place": "\u017delezni\u010dn\u00ed stanice Po\u0159\u00ed\u010dany",
    "street": "N\u00e1dra\u017en\u00ed 90",
    "region": "St\u0159edo\u010desk\u00fd kraj",
    "city": "Po\u0159\u00ed\u010dany",
    "zip": "289 14",
    "type": "wc"
  },
  {
    "id": 284,
    "lat": 50.00132388888889,
    "lng": 14.561235555555557,
    "place": "Ve\u0159ejn\u00e9 WC",
    "street": "Kv\u011btnov\u00e9 n\u00e1m\u011bst\u00ed",
    "region": "St\u0159edo\u010desk\u00fd kraj",
    "city": "Pr\u016fhonice",
    "zip": "252 43",
    "type": "wc"
  },
  {
    "id": 285,
    "lat": 50.15973111111111,
    "lng": 14.824988611111111,
    "place": "Ve\u0159ejn\u00e9 WC \u010dp 423 (hasi\u010dsk\u00e1 zbrojnice a knihovna)",
    "street": "",
    "region": "St\u0159edo\u010desk\u00fd kraj",
    "city": "P\u0159erov nad Labem",
    "zip": "289 16",
    "type": "wc"
  },
  {
    "id": 286,
    "lat": 49.68978027777777,
    "lng": 14.00415361111111,
    "place": "Autobusov\u00e9 n\u00e1dra\u017e\u00ed",
    "street": "\u010ceskoslovensk\u00e9 arm\u00e1dy",
    "region": "St\u0159edo\u010desk\u00fd kraj",
    "city": "P\u0159\u00edbram",
    "zip": "261 01",
    "type": "wc"
  },
  {
    "id": 287,
    "lat": 49.71224083333334,
    "lng": 14.097616111111112,
    "place": "\u010cerpac\u00ed stanice Benzina",
    "street": "Skalka",
    "region": "St\u0159edo\u010desk\u00fd kraj",
    "city": "P\u0159\u00edbram",
    "zip": "261 01",
    "type": "wc"
  },
  {
    "id": 288,
    "lat": 49.67896888888889,
    "lng": 14.004058055555555,
    "place": "\u010cerpac\u00ed stanice Eni - Agip",
    "street": "B\u0159eznick\u00e1 ul. 388",
    "region": "St\u0159edo\u010desk\u00fd kraj",
    "city": "P\u0159\u00edbram",
    "zip": "261 01",
    "type": "wc"
  },
  {
    "id": 289,
    "lat": 49.69521916666666,
    "lng": 14.006913055555556,
    "place": "\u010cerpac\u00ed stanice OMV",
    "street": "Evropsk\u00e1 sm\u011br centrum",
    "region": "St\u0159edo\u010desk\u00fd kraj",
    "city": "P\u0159\u00edbram",
    "zip": "261 01",
    "type": "wc"
  },
  {
    "id": 290,
    "lat": 49.688694999999996,
    "lng": 14.011000833333334,
    "place": "\u010cSSZ - OSSZ P\u0159\u00edbram",
    "street": "Hailova 133",
    "region": "St\u0159edo\u010desk\u00fd kraj",
    "city": "P\u0159\u00edbram",
    "zip": "261 01",
    "type": "wc"
  },
  {
    "id": 291,
    "lat": 49.67740694444444,
    "lng": 13.988470277777777,
    "place": "Hobby market OBI P\u0159\u00edbram",
    "street": "\u017de\u017eick\u00e1 596",
    "region": "St\u0159edo\u010desk\u00fd kraj",
    "city": "P\u0159\u00edbram",
    "zip": "261 01",
    "type": "wc"
  },
  {
    "id": 292,
    "lat": 49.68317,
    "lng": 13.986583055555554,
    "place": "Hornick\u00e9 muzeum",
    "street": "N\u00e1m. Hynka Kli\u010dky 293",
    "region": "St\u0159edo\u010desk\u00fd kraj",
    "city": "P\u0159\u00edbram",
    "zip": "261 01",
    "type": "wc"
  },
  {
    "id": 293,
    "lat": 49.66652277777778,
    "lng": 13.998254166666666,
    "place": "Hypermarket Albert",
    "street": "Brodsk\u00e1 496",
    "region": "St\u0159edo\u010desk\u00fd kraj",
    "city": "P\u0159\u00edbram",
    "zip": "261 01",
    "type": "wc"
  },
  {
    "id": 294,
    "lat": 49.69248194444444,
    "lng": 13.997720277777777,
    "place": "Hypermarket Kaufland",
    "street": "Husova 622",
    "region": "St\u0159edo\u010desk\u00fd kraj",
    "city": "P\u0159\u00edbram",
    "zip": "261 01",
    "type": "wc"
  },
  {
    "id": 295,
    "lat": 49.67091527777777,
    "lng": 13.988358055555555,
    "place": "Hypermarket Tesco",
    "street": "\u017de\u017eick\u00e1 598",
    "region": "St\u0159edo\u010desk\u00fd kraj",
    "city": "P\u0159\u00edbram",
    "zip": "261 01",
    "type": "wc"
  },
  {
    "id": 296,
    "lat": 49.68751944444444,
    "lng": 14.009403888888889,
    "place": "\u00da\u0159ad pr\u00e1ce \u010cR P\u0159\u00edbram",
    "street": "N\u00e1m\u011bst\u00ed T. G. Masaryka 145",
    "region": "St\u0159edo\u010desk\u00fd kraj",
    "city": "P\u0159\u00edbram",
    "zip": "261 01",
    "type": "wc"
  },
  {
    "id": 297,
    "lat": 49.68626222222222,
    "lng": 13.998465833333332,
    "place": "Z\u0160 a M\u0160 P\u0159\u00edbram",
    "street": "Pod \u0160achtami 335",
    "region": "St\u0159edo\u010desk\u00fd kraj",
    "city": "P\u0159\u00edbram",
    "zip": "261 01",
    "type": "wc"
  },
  {
    "id": 298,
    "lat": 49.687822777777775,
    "lng": 14.003149722222222,
    "place": "\u017delezni\u010dn\u00ed stanice P\u0159\u00edbram",
    "street": "N\u00e1dra\u017e\u00ed 21",
    "region": "St\u0159edo\u010desk\u00fd kraj",
    "city": "P\u0159\u00edbram",
    "zip": "261 01",
    "type": "wc"
  },
  {
    "id": 299,
    "lat": 49.93317722222222,
    "lng": 14.508651111111112,
    "place": "Z\u0160 speci\u00e1ln\u00ed Ps\u00e1ry",
    "street": "J\u00edlovsk\u00e1 141",
    "region": "St\u0159edo\u010desk\u00fd kraj",
    "city": "Ps\u00e1ry",
    "zip": "252 44",
    "type": "wc"
  },
  {
    "id": 300,
    "lat": 50.10590583333334,
    "lng": 13.730720277777777,
    "place": "Muzeum TGM",
    "street": "Vysok\u00e1 95",
    "region": "St\u0159edo\u010desk\u00fd kraj",
    "city": "Rakovn\u00edk",
    "zip": "269 01",
    "type": "wc"
  },
  {
    "id": 301,
    "lat": 50.10611194444444,
    "lng": 13.729845000000001,
    "place": "Rabasova galerie",
    "street": "Vysok\u00e1 232",
    "region": "St\u0159edo\u010desk\u00fd kraj",
    "city": "Rakovn\u00edk",
    "zip": "269 01",
    "type": "wc"
  },
  {
    "id": 302,
    "lat": 50.10175111111111,
    "lng": 13.72930888888889,
    "place": "\u00da\u0159ad pr\u00e1ce \u010cR Rakovn\u00edk",
    "street": "n\u00e1b\u0159e\u017e\u00ed T.G. Masaryka 2473",
    "region": "St\u0159edo\u010desk\u00fd kraj",
    "city": "Rakovn\u00edk",
    "zip": "269 24",
    "type": "wc"
  },
  {
    "id": 303,
    "lat": 50.10015222222222,
    "lng": 13.74114722222222,
    "place": "Z\u0160 a M\u0160 speci\u00e1ln\u00ed Rakovn\u00edk",
    "street": "Franti\u0161ka Diepolta 1576",
    "region": "St\u0159edo\u010desk\u00fd kraj",
    "city": "Rakovn\u00edk",
    "zip": "269 01",
    "type": "wc"
  },
  {
    "id": 304,
    "lat": 50.09905138888889,
    "lng": 13.736006111111111,
    "place": "\u017delezni\u010dn\u00ed stanice Rakovn\u00edk",
    "street": "N\u00e1dra\u017e\u00ed 191",
    "region": "St\u0159edo\u010desk\u00fd kraj",
    "city": "Rakovn\u00edk",
    "zip": "269 01",
    "type": "wc"
  },
  {
    "id": 305,
    "lat": 50.160264999999995,
    "lng": 14.370645,
    "place": "\u010cerpac\u00ed stanice PAP OIL",
    "street": "P\u0159\u00edlepsk\u00e1 1692",
    "region": "St\u0159edo\u010desk\u00fd kraj",
    "city": "Roztoky u Prahy",
    "zip": "252 63",
    "type": "wc"
  },
  {
    "id": 306,
    "lat": 50.158335,
    "lng": 14.399394166666665,
    "place": "St\u0159edo\u010desk\u00e9 muzeum Roztoky u Prahy",
    "street": "Z\u00e1mek 1",
    "region": "St\u0159edo\u010desk\u00fd kraj",
    "city": "Roztoky u Prahy",
    "zip": "252 63",
    "type": "wc"
  },
  {
    "id": 307,
    "lat": 50.15966833333333,
    "lng": 14.39812361111111,
    "place": "\u017delezni\u010dn\u00ed stanice Roztoky u Prahy",
    "street": "N\u00e1dra\u017en\u00ed 89",
    "region": "St\u0159edo\u010desk\u00fd kraj",
    "city": "Roztoky u Prahy",
    "zip": "252 63",
    "type": "wc"
  },
  {
    "id": 308,
    "lat": 50.003435833333334,
    "lng": 14.66013888888889,
    "place": "\u010cerpac\u00ed stanice Benzina",
    "street": "Rado\u0161ovice",
    "region": "St\u0159edo\u010desk\u00fd kraj",
    "city": "\u0158\u00ed\u010dany u Prahy",
    "zip": "251 01",
    "type": "wc"
  },
  {
    "id": 309,
    "lat": 50.0044,
    "lng": 14.576876666666667,
    "place": "Hypermarket Makro Cash & Carry Pr\u016fhonice",
    "street": "U Makra 102",
    "region": "St\u0159edo\u010desk\u00fd kraj",
    "city": "\u0158\u00ed\u010dany u Prahy",
    "zip": "251 01",
    "type": "wc"
  },
  {
    "id": 310,
    "lat": 50.00262583333333,
    "lng": 14.65824888888889,
    "place": "Hypermarket Tesco",
    "street": "\u010cernokosteleck\u00e1 1623",
    "region": "St\u0159edo\u010desk\u00fd kraj",
    "city": "\u0158\u00ed\u010dany u Prahy",
    "zip": "251 01",
    "type": "wc"
  },
  {
    "id": 311,
    "lat": 49.9919,
    "lng": 14.6568,
    "place": "Ve\u0159ejn\u00e9 WC",
    "street": "Masarykovo n\u00e1m\u011bst\u00ed 83",
    "region": "St\u0159edo\u010desk\u00fd kraj",
    "city": "\u0158\u00ed\u010dany u Prahy",
    "zip": "251 01",
    "type": "wc"
  },
  {
    "id": 312,
    "lat": 50.1365675,
    "lng": 14.984674444444444,
    "place": "Ve\u0159ejn\u00e9 WC",
    "street": "Tylova 1138",
    "region": "St\u0159edo\u010desk\u00fd kraj",
    "city": "Sadsk\u00e1",
    "zip": "289 12",
    "type": "wc"
  },
  {
    "id": 313,
    "lat": 49.87507222222222,
    "lng": 14.90628,
    "place": "\u017delezni\u010dn\u00ed stanice S\u00e1zava",
    "street": "N\u00e1dra\u017en\u00ed 76",
    "region": "St\u0159edo\u010desk\u00fd kraj",
    "city": "S\u00e1zava",
    "zip": "285 06",
    "type": "wc"
  },
  {
    "id": 314,
    "lat": 49.65364388888889,
    "lng": 14.42563111111111,
    "place": "\u010cerpac\u00ed stanice PAP OIL Sedl\u010dany 1167",
    "street": "",
    "region": "St\u0159edo\u010desk\u00fd kraj",
    "city": "Sedl\u010dany",
    "zip": "264 01",
    "type": "wc"
  },
  {
    "id": 315,
    "lat": 49.65680388888889,
    "lng": 14.427713888888889,
    "place": "Gymn\u00e1zium a St\u0159edn\u00ed odborn\u00e1 \u0161kola ekonomick\u00e1",
    "street": "N\u00e1dra\u017en\u00ed 90",
    "region": "St\u0159edo\u010desk\u00fd kraj",
    "city": "Sedl\u010dany",
    "zip": "264 01",
    "type": "wc"
  },
  {
    "id": 316,
    "lat": 49.658249999999995,
    "lng": 14.420966944444444,
    "place": "M\u011bstsk\u00e1 knihovna Sedl\u010dany",
    "street": "Kapit\u00e1na Jaro\u0161e 482",
    "region": "St\u0159edo\u010desk\u00fd kraj",
    "city": "Sedl\u010dany",
    "zip": "264 01",
    "type": "wc"
  },
  {
    "id": 317,
    "lat": 49.65584944444444,
    "lng": 14.434086666666667,
    "place": "\u017delezni\u010dn\u00ed stanice Sedl\u010dany",
    "street": "N\u00e1dra\u017en\u00ed 101",
    "region": "St\u0159edo\u010desk\u00fd kraj",
    "city": "Sedl\u010dany",
    "zip": "264 01",
    "type": "wc"
  },
  {
    "id": 318,
    "lat": 49.897240277777776,
    "lng": 14.727964444444444,
    "place": "\u017delezni\u010dn\u00ed stanice Senohraby",
    "street": "Hlavn\u00ed 48",
    "region": "St\u0159edo\u010desk\u00fd kraj",
    "city": "Senohraby",
    "zip": "251 66",
    "type": "wc"
  },
  {
    "id": 319,
    "lat": 50.228054166666666,
    "lng": 14.089096944444446,
    "place": "\u010cerpac\u00ed stanice PAP OIL",
    "street": "Ouvalova 460",
    "region": "St\u0159edo\u010desk\u00fd kraj",
    "city": "Slan\u00fd II",
    "zip": "274 01",
    "type": "wc"
  },
  {
    "id": 320,
    "lat": 50.22727805555556,
    "lng": 14.098428055555557,
    "place": "\u010cerpac\u00ed stanice PAP OIL",
    "street": "Pra\u017esk\u00e1 ul.",
    "region": "St\u0159edo\u010desk\u00fd kraj",
    "city": "Slan\u00fd I",
    "zip": "274 01",
    "type": "wc"
  },
  {
    "id": 321,
    "lat": 50.208985000000006,
    "lng": 14.085136111111112,
    "place": "\u010cerpac\u00ed stanice Shell - rychlostn\u00ed komunikace R7",
    "street": "",
    "region": "St\u0159edo\u010desk\u00fd kraj",
    "city": "okruh Slan\u00fd",
    "zip": "274 01",
    "type": "wc"
  },
  {
    "id": 322,
    "lat": 50.22873777777778,
    "lng": 14.089518055555557,
    "place": "Hypermarket Kaufland",
    "street": "Ouvalova 1844",
    "region": "St\u0159edo\u010desk\u00fd kraj",
    "city": "Slan\u00fd",
    "zip": "274 01",
    "type": "wc"
  },
  {
    "id": 323,
    "lat": 50.23019416666667,
    "lng": 14.082309166666667,
    "place": "M\u011bstsk\u00e9 divadlo Slan\u00fd",
    "street": "Wilsonova ul.",
    "region": "St\u0159edo\u010desk\u00fd kraj",
    "city": "Slan\u00fd",
    "zip": "274 01",
    "type": "wc"
  },
  {
    "id": 324,
    "lat": 50.22577611111112,
    "lng": 14.068911944444444,
    "place": "V\u00edce\u00fa\u010delov\u00e1 sportovn\u00ed hala",
    "street": "Lacinova 1720",
    "region": "St\u0159edo\u010desk\u00fd kraj",
    "city": "Slan\u00fd",
    "zip": "274 01",
    "type": "wc"
  },
  {
    "id": 325,
    "lat": 50.23047638888889,
    "lng": 14.088063333333334,
    "place": "Vlastiv\u011bdn\u00e9 muzeum",
    "street": "Masarykovo n\u00e1m\u011bst\u00ed 159",
    "region": "St\u0159edo\u010desk\u00fd kraj",
    "city": "Slan\u00fd",
    "zip": "274 01",
    "type": "wc"
  },
  {
    "id": 326,
    "lat": 50.22848583333334,
    "lng": 14.076164166666667,
    "place": "\u017delezni\u010dn\u00ed stanice Slan\u00fd",
    "street": "Wilsonova 539/42",
    "region": "St\u0159edo\u010desk\u00fd kraj",
    "city": "Slan\u00fd",
    "zip": "274 01",
    "type": "wc"
  },
  {
    "id": 327,
    "lat": 50.14653333333333,
    "lng": 13.955338888888889,
    "place": "Pas\u00e1\u017e obchodu",
    "street": "M\u00edrov\u00e9 n\u00e1m\u011bst\u00ed 262",
    "region": "St\u0159edo\u010desk\u00fd kraj",
    "city": "Stochov",
    "zip": "273 03",
    "type": "wc"
  },
  {
    "id": 328,
    "lat": 50.148022222222224,
    "lng": 13.959922222222222,
    "place": "St\u0159edn\u00ed odborn\u00e9 u\u010dili\u0161t\u011b",
    "street": "J. \u0160\u00edpka 187",
    "region": "St\u0159edo\u010desk\u00fd kraj",
    "city": "Stochov",
    "zip": "273 03",
    "type": "wc"
  },
  {
    "id": 329,
    "lat": 49.94916555555555,
    "lng": 14.677733055555555,
    "place": "\u017delezni\u010dn\u00ed stanice Stran\u010dice",
    "street": "Sokolsk\u00e1 39",
    "region": "St\u0159edo\u010desk\u00fd kraj",
    "city": "Stran\u010dice",
    "zip": "251 63",
    "type": "wc"
  },
  {
    "id": 330,
    "lat": 49.8387,
    "lng": 14.594926944444445,
    "place": "\u010cerpac\u00ed stanice \u010cEPRO - EuroOil",
    "street": "Pra\u017esk\u00e1",
    "region": "St\u0159edo\u010desk\u00fd kraj",
    "city": "T\u00fdnec nad S\u00e1zavou",
    "zip": "257 41",
    "type": "wc"
  },
  {
    "id": 331,
    "lat": 50.06893083333334,
    "lng": 14.730822777777778,
    "place": "\u010cerpac\u00ed stanice Benzina",
    "street": "U P\u0159elo\u017eky",
    "region": "St\u0159edo\u010desk\u00fd kraj",
    "city": "\u00davaly u Prahy",
    "zip": "250 82",
    "type": "wc"
  },
  {
    "id": 332,
    "lat": 50.074665,
    "lng": 14.723076944444445,
    "place": "\u017delezni\u010dn\u00ed stanice \u00davaly",
    "street": "Jir\u00e1skova 287",
    "region": "St\u0159edo\u010desk\u00fd kraj",
    "city": "\u00davaly",
    "zip": "250 82",
    "type": "wc"
  },
  {
    "id": 333,
    "lat": 50.067619444444446,
    "lng": 15.124773055555556,
    "place": "\u017delezni\u010dn\u00ed stanice Velim",
    "street": "N\u00e1dra\u017en\u00ed 102",
    "region": "St\u0159edo\u010desk\u00fd kraj",
    "city": "Velim",
    "zip": "281 01",
    "type": "wc"
  },
  {
    "id": 334,
    "lat": 49.704605,
    "lng": 14.896286111111111,
    "place": "M\u011bstsk\u00e1 knihovna Vla\u0161im",
    "street": "Na Tenise 1566",
    "region": "St\u0159edo\u010desk\u00fd kraj",
    "city": "Vla\u0161im",
    "zip": "258 01",
    "type": "wc"
  },
  {
    "id": 335,
    "lat": 49.703520833333336,
    "lng": 14.897248055555554,
    "place": "M\u011bstsk\u00fd \u00fa\u0159ad Vla\u0161im",
    "street": "Jana Masaryka 302",
    "region": "St\u0159edo\u010desk\u00fd kraj",
    "city": "Vla\u0161im",
    "zip": "258 01",
    "type": "wc"
  },
  {
    "id": 336,
    "lat": 49.700539444444445,
    "lng": 14.897703055555555,
    "place": "\u017delezni\u010dn\u00ed stanice Vla\u0161im",
    "street": "N\u00e1dra\u017en\u00ed 347",
    "region": "St\u0159edo\u010desk\u00fd kraj",
    "city": "Vla\u0161im",
    "zip": "258 01",
    "type": "wc"
  },
  {
    "id": 337,
    "lat": 49.638685833333334,
    "lng": 14.642672222222222,
    "place": "Autobusov\u00e9 n\u00e1dra\u017e\u00ed Votice",
    "street": "T\u00e1borsk\u00e1 900",
    "region": "St\u0159edo\u010desk\u00fd kraj",
    "city": "Votice",
    "zip": "259 01",
    "type": "wc"
  },
  {
    "id": 338,
    "lat": 49.63937027777778,
    "lng": 14.642271388888888,
    "place": "M\u011bstsk\u00e9 byty",
    "street": "Komensk\u00e9ho n\u00e1m\u011bst\u00ed 80",
    "region": "St\u0159edo\u010desk\u00fd kraj",
    "city": "Votice",
    "zip": "259 01",
    "type": "platform"
  },
  {
    "id": 339,
    "lat": 49.638687222222224,
    "lng": 14.629514722222222,
    "place": "P\u0159\u00edrodn\u00ed koupali\u0161t\u011b Pila\u0159 Votice",
    "street": "Husova",
    "region": "St\u0159edo\u010desk\u00fd kraj",
    "city": "Votice",
    "zip": "259 01",
    "type": "wc"
  },
  {
    "id": 340,
    "lat": 49.638670833333336,
    "lng": 14.642238611111111,
    "place": "\u00da\u0159ad pr\u00e1ce \u010cR Votice",
    "street": "Komensk\u00e9ho n\u00e1m\u011bst\u00ed 230",
    "region": "St\u0159edo\u010desk\u00fd kraj",
    "city": "Votice",
    "zip": "259 01",
    "type": "wc"
  },
  {
    "id": 341,
    "lat": 50.121650833333334,
    "lng": 15.082319166666666,
    "place": "\u010cerpac\u00ed stanice OMV, D11 - 35. km",
    "street": "sm\u011br Praha",
    "region": "St\u0159edo\u010desk\u00fd kraj",
    "city": "Vrbova Lhota",
    "zip": "289 11",
    "type": "wc"
  },
  {
    "id": 342,
    "lat": 49.63689111111111,
    "lng": 13.94016,
    "place": "Pam\u00e1tn\u00edk A. Dvo\u0159\u00e1ka",
    "street": "Z\u00e1mek 69",
    "region": "St\u0159edo\u010desk\u00fd kraj",
    "city": "Vysok\u00e9 u P\u0159\u00edbrami",
    "zip": "262 42",
    "type": "wc"
  },
  {
    "id": 343,
    "lat": 49.91873861111111,
    "lng": 14.203046944444443,
    "place": "\u017delezni\u010dn\u00ed stanice Zadn\u00ed T\u0159eb\u00e1\u0148",
    "street": "K N\u00e1dra\u017e\u00ed 35",
    "region": "St\u0159edo\u010desk\u00fd kraj",
    "city": "Zadn\u00ed T\u0159eb\u00e1\u0148",
    "zip": "267 29",
    "type": "wc"
  },
  {
    "id": 344,
    "lat": 49.815643333333334,
    "lng": 15.1889725,
    "place": "\u017delezni\u010dn\u00ed stanice Zbraslavice 168",
    "street": "",
    "region": "St\u0159edo\u010desk\u00fd kraj",
    "city": "Zbraslavice",
    "zip": "285 21",
    "type": "wc"
  },
  {
    "id": 345,
    "lat": 49.905318888888885,
    "lng": 13.962031388888889,
    "place": "\u010cerpac\u00ed stanice Euro Oil Zdice",
    "street": "Komensk\u00e9ho 1016",
    "region": "St\u0159edo\u010desk\u00fd kraj",
    "city": "Zdice",
    "zip": "267 51",
    "type": "wc"
  },
  {
    "id": 346,
    "lat": 49.90777194444444,
    "lng": 13.979634166666667,
    "place": "\u017delezni\u010dn\u00ed stanice Zdice",
    "street": "\u010cs. Arm\u00e1dy 115",
    "region": "St\u0159edo\u010desk\u00fd kraj",
    "city": "Zdice",
    "zip": "267 51",
    "type": "wc"
  },
  {
    "id": 347,
    "lat": 49.74229638888889,
    "lng": 15.103368333333332,
    "place": "Restaurace a hygienick\u00e9 z\u00e1zem\u00ed pod z\u00e1mkem",
    "street": "N\u00e1m. MUDr. J. Svobody 32",
    "region": "St\u0159edo\u010desk\u00fd kraj",
    "city": "Zru\u010d nad S\u00e1zavou",
    "zip": "285 22",
    "type": "wc"
  },